{
"type": "FeatureCollection",
"features": [
{ "type": "Feature", "properties": { "name": "Estadio do Dragao", "id": "metro/bus_1", "W_candidate": 3.5253179584787642 }, "geometry": { "type": "Point", "coordinates": [ -8.582416, 41.160716 ] } },
{ "type": "Feature", "properties": { "name": "Campanha", "id": "metro/bus_2", "W_candidate": 7.8558475895452613 }, "geometry": { "type": "Point", "coordinates": [ -8.586245, 41.150537 ] } },
{ "type": "Feature", "properties": { "name": "Heroismo", "id": "metro/bus_3", "W_candidate": 3.0639026187920226 }, "geometry": { "type": "Point", "coordinates": [ -8.592978, 41.146697 ] } },
{ "type": "Feature", "properties": { "name": "24 de Agosto", "id": "metro/bus_4", "W_candidate": 11.124853546199127 }, "geometry": { "type": "Point", "coordinates": [ -8.598349, 41.148796 ] } },
{ "type": "Feature", "properties": { "name": "Bolhao", "id": "metro/bus_5", "W_candidate": 23.300948998638294 }, "geometry": { "type": "Point", "coordinates": [ -8.605901, 41.149785 ] } },
{ "type": "Feature", "properties": { "name": "Trindade", "id": "metro/bus_6", "W_candidate": 30.325698467366333 }, "geometry": { "type": "Point", "coordinates": [ -8.609299, 41.152277 ] } },
{ "type": "Feature", "properties": { "name": "Lapa", "id": "metro/bus_7", "W_candidate": 2.4389845440489646 }, "geometry": { "type": "Point", "coordinates": [ -8.616723, 41.157107 ] } },
{ "type": "Feature", "properties": { "name": "Carolina Michaelis", "id": "metro/bus_8", "W_candidate": 4.6825555901265759 }, "geometry": { "type": "Point", "coordinates": [ -8.622246, 41.158585 ] } },
{ "type": "Feature", "properties": { "name": "Casa da Musica", "id": "metro/bus_9", "W_candidate": 27.491311443209906 }, "geometry": { "type": "Point", "coordinates": [ -8.628282, 41.160575 ] } },
{ "type": "Feature", "properties": { "name": "Francos", "id": "metro/bus_10", "W_candidate": 2.0538443009894967 }, "geometry": { "type": "Point", "coordinates": [ -8.636347, 41.165549 ] } },
{ "type": "Feature", "properties": { "name": "Ramalde", "id": "metro/bus_11", "W_candidate": 1.3985992778684337 }, "geometry": { "type": "Point", "coordinates": [ -8.641766, 41.172962 ] } },
{ "type": "Feature", "properties": { "name": "Via Rapida Viso", "id": "metro/bus_12", "W_candidate": 3.4899450837483701 }, "geometry": { "type": "Point", "coordinates": [ -8.646498, 41.177255 ] } },
{ "type": "Feature", "properties": { "name": "Sao Bento", "id": "metro/bus_60", "W_candidate": 23.705472270322158 }, "geometry": { "type": "Point", "coordinates": [ -8.610815, 41.144938 ] } },
{ "type": "Feature", "properties": { "name": "Aliados", "id": "metro/bus_61", "W_candidate": 33.150637923303734 }, "geometry": { "type": "Point", "coordinates": [ -8.610945, 41.148581 ] } },
{ "type": "Feature", "properties": { "name": "Faria Guimaraes", "id": "metro/bus_62", "W_candidate": 2.8358518518067344 }, "geometry": { "type": "Point", "coordinates": [ -8.609141, 41.157219 ] } },
{ "type": "Feature", "properties": { "name": "Marques", "id": "metro/bus_63", "W_candidate": 11.001592848130185 }, "geometry": { "type": "Point", "coordinates": [ -8.604272, 41.161123 ] } },
{ "type": "Feature", "properties": { "name": "Combatentes", "id": "metro/bus_64", "W_candidate": 4.0698121516809218 }, "geometry": { "type": "Point", "coordinates": [ -8.598464, 41.165301 ] } },
{ "type": "Feature", "properties": { "name": "Salgueiros", "id": "metro/bus_65", "W_candidate": 2.6404377368965264 }, "geometry": { "type": "Point", "coordinates": [ -8.598744, 41.169684 ] } },
{ "type": "Feature", "properties": { "name": "Polo Universitario", "id": "metro/bus_66", "W_candidate": 1.6115879199843111 }, "geometry": { "type": "Point", "coordinates": [ -8.603607, 41.174247 ] } },
{ "type": "Feature", "properties": { "name": "I.P.O.", "id": "metro/bus_67", "W_candidate": 6.4041010683091422 }, "geometry": { "type": "Point", "coordinates": [ -8.604521, 41.181253 ] } },
{ "type": "Feature", "properties": { "name": "Hospital de Sao Joao", "id": "metro/bus_68", "W_candidate": 15.05307102189888 }, "geometry": { "type": "Point", "coordinates": [ -8.60224, 41.18326 ] } },
{ "type": "Feature", "properties": { "name": "Contumil", "id": "metro/bus_73", "W_candidate": 1.5477738753800239 }, "geometry": { "type": "Point", "coordinates": [ -8.578639, 41.165712 ] } },
{ "type": "Feature", "properties": { "name": "Nasoni", "id": "metro/bus_74", "W_candidate": 0.010815610059552916 }, "geometry": { "type": "Point", "coordinates": [ -8.577317, 41.170767 ] } },
{ "type": "Feature", "properties": { "name": "Nau Vitoria", "id": "metro/bus_75", "W_candidate": 0.015135794678014283 }, "geometry": { "type": "Point", "coordinates": [ -8.573534, 41.174122 ] } },
{ "type": "Feature", "properties": { "name": "PAULO NOVAIS", "id": "metro/bus_PNV2", "W_candidate": 7.8132239079480517 }, "geometry": { "type": "Point", "coordinates": [ -8.66008592151551, 41.163225574886198 ] } },
{ "type": "Feature", "properties": { "name": "ROT. DO BESSA", "id": "metro/bus_RBSS1", "W_candidate": 2.4221439783885095 }, "geometry": { "type": "Point", "coordinates": [ -8.64043999869522, 41.165917471226201 ] } },
{ "type": "Feature", "properties": { "name": "ROT. DO BESSA", "id": "metro/bus_RBSS2", "W_candidate": 2.3635882321274773 }, "geometry": { "type": "Point", "coordinates": [ -8.638862188703071, 41.1645757705016 ] } },
{ "type": "Feature", "properties": { "name": "EZEQUIEL CAMPOS", "id": "metro/bus_EZC2", "W_candidate": 2.9889952368694019 }, "geometry": { "type": "Point", "coordinates": [ -8.654055149999669, 41.174401845550598 ] } },
{ "type": "Feature", "properties": { "name": "FONTE DA MOURA", "id": "metro/bus_FTM1", "W_candidate": 6.4590268742586687 }, "geometry": { "type": "Point", "coordinates": [ -8.66214428637694, 41.164505075370599 ] } },
{ "type": "Feature", "properties": { "name": "PEREIRÓ", "id": "metro/bus_PRO2", "W_candidate": 6.0797521502987744 }, "geometry": { "type": "Point", "coordinates": [ -8.655668313598889, 41.172482923610403 ] } },
{ "type": "Feature", "properties": { "name": "SIDÓNIO PAIS", "id": "metro/bus_SDP1", "W_candidate": 2.0538443009894967 }, "geometry": { "type": "Point", "coordinates": [ -8.637003569832061, 41.164563495940399 ] } },
{ "type": "Feature", "properties": { "name": "ROT. A.E.P.", "id": "metro/bus_RAEP2", "W_candidate": 2.3620674752121973 }, "geometry": { "type": "Point", "coordinates": [ -8.65404309321578, 41.178316216643601 ] } },
{ "type": "Feature", "properties": { "name": "PRECIOSA", "id": "metro/bus_PREC1", "W_candidate": 1.5098436429851165 }, "geometry": { "type": "Point", "coordinates": [ -8.65680134247858, 41.177484295647403 ] } },
{ "type": "Feature", "properties": { "name": "BEATA MAFALDA", "id": "metro/bus_BMAF1", "W_candidate": 1.3349756681100635 }, "geometry": { "type": "Point", "coordinates": [ -8.575442472924751, 41.165194810068201 ] } },
{ "type": "Feature", "properties": { "name": "BR. FALCÃO", "id": "metro/bus_BFAL2", "W_candidate": 1.9905595397584293 }, "geometry": { "type": "Point", "coordinates": [ -8.575307318145191, 41.158931606382602 ] } },
{ "type": "Feature", "properties": { "name": "LAGARTEIRO", "id": "metro/bus_LGT2", "W_candidate": 3.0951861473995486 }, "geometry": { "type": "Point", "coordinates": [ -8.56879801231881, 41.151715963033197 ] } },
{ "type": "Feature", "properties": { "name": "ESTÁDIO DO DRAGÃO", "id": "metro/bus_EDRG4", "W_candidate": 2.7620493697542687 }, "geometry": { "type": "Point", "coordinates": [ -8.58387930401658, 41.158550276628503 ] } },
{ "type": "Feature", "properties": { "name": "VILA COVA", "id": "metro/bus_VLC1", "W_candidate": 1.1205526129424643 }, "geometry": { "type": "Point", "coordinates": [ -8.56750648037897, 41.1725261019998 ] } },
{ "type": "Feature", "properties": { "name": "BONJÓIA", "id": "metro/bus_BNJ1", "W_candidate": 0.59122485609712094 }, "geometry": { "type": "Point", "coordinates": [ -8.57472081242893, 41.151995891407601 ] } },
{ "type": "Feature", "properties": { "name": "GODIM", "id": "metro/bus_GDM1", "W_candidate": 0.89528105154482873 }, "geometry": { "type": "Point", "coordinates": [ -8.59143812120255, 41.1529969720686 ] } },
{ "type": "Feature", "properties": { "name": "IGREJA DE CAMPANHÃ", "id": "metro/bus_ICAM2", "W_candidate": 2.8933000168719252 }, "geometry": { "type": "Point", "coordinates": [ -8.574128357117729, 41.155484172027997 ] } },
{ "type": "Feature", "properties": { "name": "ILHÉU", "id": "metro/bus_ILH2", "W_candidate": 1.6780890580176848 }, "geometry": { "type": "Point", "coordinates": [ -8.57242474854225, 41.163459654508003 ] } },
{ "type": "Feature", "properties": { "name": "ANTAS (L. CIDADÃO)", "id": "metro/bus_ANT1", "W_candidate": 5.6215356604900064 }, "geometry": { "type": "Point", "coordinates": [ -8.58880550503584, 41.165305556698002 ] } },
{ "type": "Feature", "properties": { "name": "VARANDAS", "id": "metro/bus_VRD2", "W_candidate": 0.16574070535779858 }, "geometry": { "type": "Point", "coordinates": [ -8.58742526292748, 41.142195706852704 ] } },
{ "type": "Feature", "properties": { "name": "BR. COSTA CABRAL", "id": "metro/bus_BRCC1", "W_candidate": 5.2898638642009681 }, "geometry": { "type": "Point", "coordinates": [ -8.585643069250571, 41.171955809522103 ] } },
{ "type": "Feature", "properties": { "name": "FONTE VELHA", "id": "metro/bus_FVLH2", "W_candidate": 1.5272325151308423 }, "geometry": { "type": "Point", "coordinates": [ -8.58682604381052, 41.157607365691703 ] } },
{ "type": "Feature", "properties": { "name": "VILA NOVA FOZ CÔA", "id": "metro/bus_VNFZ2", "W_candidate": 1.1767468926520512 }, "geometry": { "type": "Point", "coordinates": [ -8.56672523380975, 41.161766178633997 ] } },
{ "type": "Feature", "properties": { "name": "PEGO NEGRO", "id": "metro/bus_PNG1", "W_candidate": 1.6526209313457425 }, "geometry": { "type": "Point", "coordinates": [ -8.566674746724591, 41.159192680208101 ] } },
{ "type": "Feature", "properties": { "name": "PEGO NEGRO", "id": "metro/bus_PNG2", "W_candidate": 1.3388524751282098 }, "geometry": { "type": "Point", "coordinates": [ -8.56649111652642, 41.159043452100398 ] } },
{ "type": "Feature", "properties": { "name": "FONTE DE CONTUMIL", "id": "metro/bus_FTC2", "W_candidate": 1.2353773594897031 }, "geometry": { "type": "Point", "coordinates": [ -8.582572395797641, 41.168403803696599 ] } },
{ "type": "Feature", "properties": { "name": "FREIXO", "id": "metro/bus_FRX3", "W_candidate": 1.1692588896839506 }, "geometry": { "type": "Point", "coordinates": [ -8.57823161818415, 41.146210598241197 ] } },
{ "type": "Feature", "properties": { "name": "HOSP. S. JOÃO (URGÊNCIA)", "id": "metro/bus_HSJ5", "W_candidate": 13.752025904811957 }, "geometry": { "type": "Point", "coordinates": [ -8.601027764066011, 41.182999998266901 ] } },
{ "type": "Feature", "properties": { "name": "HOSP. S. JOÃO (URGÊNCIA)", "id": "metro/bus_HSJ6", "W_candidate": 13.079380287767655 }, "geometry": { "type": "Point", "coordinates": [ -8.60052355775418, 41.182892109233102 ] } },
{ "type": "Feature", "properties": { "name": "MUSEU C. ELÉCTRICO", "id": "metro/bus_MCE1", "W_candidate": 5.7931632449412858 }, "geometry": { "type": "Point", "coordinates": [ -8.632302835458971, 41.146723521167303 ] } },
{ "type": "Feature", "properties": { "name": "SALGUEIRO MAIA", "id": "metro/bus_SMAI1", "W_candidate": 6.0560631207245503 }, "geometry": { "type": "Point", "coordinates": [ -8.63129351101723, 41.148666701263998 ] } },
{ "type": "Feature", "properties": { "name": "BESSA", "id": "metro/bus_BSS6", "W_candidate": 4.920929794691812 }, "geometry": { "type": "Point", "coordinates": [ -8.64415417444374, 41.160060858967199 ] } },
{ "type": "Feature", "properties": { "name": "BAIRRO BESSA LEITE", "id": "metro/bus_BBL", "W_candidate": 1.7340999957415781 }, "geometry": { "type": "Point", "coordinates": [ -8.645642688384401, 41.157642080483299 ] } },
{ "type": "Feature", "properties": { "name": "MOCIDADE ARRÁBIDA", "id": "metro/bus_MARB", "W_candidate": 0.80834026560396088 }, "geometry": { "type": "Point", "coordinates": [ -8.64633407922938, 41.151473778122302 ] } },
{ "type": "Feature", "properties": { "name": "TV. ENTRE CAMPOS", "id": "metro/bus_TEC", "W_candidate": 3.4339152492857328 }, "geometry": { "type": "Point", "coordinates": [ -8.64322215580278, 41.148888911593602 ] } },
{ "type": "Feature", "properties": { "name": "COVELO", "id": "metro/bus_CVLO1", "W_candidate": 4.0044970156684663 }, "geometry": { "type": "Point", "coordinates": [ -8.60633074918764, 41.1659166900427 ] } },
{ "type": "Feature", "properties": { "name": "BR. DA PASTELEIRA", "id": "metro/bus_BPTL1", "W_candidate": 2.7368709112835132 }, "geometry": { "type": "Point", "coordinates": [ -8.658185456514451, 41.155073361239801 ] } },
{ "type": "Feature", "properties": { "name": "BR. DA PASTELEIRA", "id": "metro/bus_BPTL2", "W_candidate": 2.7368709112835132 }, "geometry": { "type": "Point", "coordinates": [ -8.65819951176446, 41.1548942923963 ] } },
{ "type": "Feature", "properties": { "name": "EST.S.BENTO", "id": "metro/bus_SBNT", "W_candidate": 25.197601955609382 }, "geometry": { "type": "Point", "coordinates": [ -8.61098308730028, 41.145376714861399 ] } },
{ "type": "Feature", "properties": { "name": "BR.CONTUMIL", "id": "metro/bus_BCNT", "W_candidate": 1.4325726424648677 }, "geometry": { "type": "Point", "coordinates": [ -8.58074779384326, 41.165830129316099 ] } },
{ "type": "Feature", "properties": { "name": "BR. FONTE DA MOURA", "id": "metro/bus_BFTM3", "W_candidate": 5.2207714649424757 }, "geometry": { "type": "Point", "coordinates": [ -8.660987602979549, 41.170671993310201 ] } },
{ "type": "Feature", "properties": { "name": "BR.FONTE DA MOURA", "id": "metro/bus_BFTM4", "W_candidate": 4.2200564174637014 }, "geometry": { "type": "Point", "coordinates": [ -8.660765440056471, 41.170310863353102 ] } },
{ "type": "Feature", "properties": { "name": "PEDRA VERDE", "id": "metro/bus_PDVD5", "W_candidate": 1.5448012994795062 }, "geometry": { "type": "Point", "coordinates": [ -8.662484465349239, 41.1727771401168 ] } },
{ "type": "Feature", "properties": { "name": "C.SAÚDE DE ALDOAR", "id": "metro/bus_CSA3", "W_candidate": 1.0254519380959022 }, "geometry": { "type": "Point", "coordinates": [ -8.666462921248529, 41.175940027744602 ] } },
{ "type": "Feature", "properties": { "name": "ALCAIDE FARIA", "id": "metro/bus_ALCF1", "W_candidate": 0.95669604547248621 }, "geometry": { "type": "Point", "coordinates": [ -8.666958011824351, 41.171230139404599 ] } },
{ "type": "Feature", "properties": { "name": "PROF. MELO ADRIÃO", "id": "metro/bus_PFMA2", "W_candidate": 1.1181825675306472 }, "geometry": { "type": "Point", "coordinates": [ -8.66805896947448, 41.169754629052299 ] } },
{ "type": "Feature", "properties": { "name": "PÊRO VAZ CAMINHA", "id": "metro/bus_PVC2", "W_candidate": 4.1212818214582345 }, "geometry": { "type": "Point", "coordinates": [ -8.667209764048449, 41.157227465364002 ] } },
{ "type": "Feature", "properties": { "name": "DIONÍSIO SANTOS SILVA", "id": "metro/bus_DSS", "W_candidate": 1.4679579960833555 }, "geometry": { "type": "Point", "coordinates": [ -8.606860455601479, 41.174918749520501 ] } },
{ "type": "Feature", "properties": { "name": "REVILÃO", "id": "metro/bus_REV1", "W_candidate": 1.6083415371354028 }, "geometry": { "type": "Point", "coordinates": [ -8.660376358366641, 41.173215072751802 ] } },
{ "type": "Feature", "properties": { "name": "REVILÃO", "id": "metro/bus_REV2", "W_candidate": 1.6083415371354028 }, "geometry": { "type": "Point", "coordinates": [ -8.66057216561517, 41.173246679460398 ] } },
{ "type": "Feature", "properties": { "name": "PROF.MELO ADRIÃO", "id": "metro/bus_PFMA1", "W_candidate": 0.99560696294749373 }, "geometry": { "type": "Point", "coordinates": [ -8.66753105454624, 41.170248085910401 ] } },
{ "type": "Feature", "properties": { "name": "LIDADOR/M.MONIZ", "id": "metro/bus_LDDM1", "W_candidate": 2.2711466147839166 }, "geometry": { "type": "Point", "coordinates": [ -8.66144346385612, 41.175223246671699 ] } },
{ "type": "Feature", "properties": { "name": "ANTÓNIO PATRÍCIO", "id": "metro/bus_APT1", "W_candidate": 5.7322054556196562 }, "geometry": { "type": "Point", "coordinates": [ -8.640914948177871, 41.159142197588302 ] } },
{ "type": "Feature", "properties": { "name": "ANTÓNIO PATRÍCIO", "id": "metro/bus_APT3", "W_candidate": 4.2563515898008317 }, "geometry": { "type": "Point", "coordinates": [ -8.640570806117269, 41.158671984914001 ] } },
{ "type": "Feature", "properties": { "name": "HOSPITAL DA PRELADA", "id": "metro/bus_HPRL3", "W_candidate": 2.1560560934161259 }, "geometry": { "type": "Point", "coordinates": [ -8.629111111240301, 41.169972196822499 ] } },
{ "type": "Feature", "properties": { "name": "HOSPITAL DA PRELADA", "id": "metro/bus_HPRL4", "W_candidate": 2.1560560934161259 }, "geometry": { "type": "Point", "coordinates": [ -8.629194461542751, 41.169916641016201 ] } },
{ "type": "Feature", "properties": { "name": "MARIA LAMAS", "id": "metro/bus_MLAM1", "W_candidate": 2.0561280852300601 }, "geometry": { "type": "Point", "coordinates": [ -8.632111088344891, 41.1699999972383 ] } },
{ "type": "Feature", "properties": { "name": "MARIA LAMAS", "id": "metro/bus_MLAM2", "W_candidate": 2.0561280852300601 }, "geometry": { "type": "Point", "coordinates": [ -8.632250003299919, 41.170027757246402 ] } },
{ "type": "Feature", "properties": { "name": "CASA DA PRELADA", "id": "metro/bus_CPR1", "W_candidate": 1.2162815733513537 }, "geometry": { "type": "Point", "coordinates": [ -8.633166605372621, 41.172999942115503 ] } },
{ "type": "Feature", "properties": { "name": "CASA DA PRELADA", "id": "metro/bus_CPR2", "W_candidate": 1.2162815733513537 }, "geometry": { "type": "Point", "coordinates": [ -8.63361107223982, 41.173527726028098 ] } },
{ "type": "Feature", "properties": { "name": "PRELADA", "id": "metro/bus_PREL2", "W_candidate": 2.1632489211103021 }, "geometry": { "type": "Point", "coordinates": [ -8.63724998274755, 41.173388910608203 ] } },
{ "type": "Feature", "properties": { "name": "HOSP. ST. ANTÓNIO", "id": "metro/bus_HSA5", "W_candidate": 11.122519937745896 }, "geometry": { "type": "Point", "coordinates": [ -8.6224501585514, 41.147766093328499 ] } },
{ "type": "Feature", "properties": { "name": "HOMEM DO LEME", "id": "metro/bus_HMLM3", "W_candidate": 3.5133359309606798 }, "geometry": { "type": "Point", "coordinates": [ -8.685887007753211, 41.163407189540301 ] } },
{ "type": "Feature", "properties": { "name": "LIMA", "id": "metro/bus_LIMA1", "W_candidate": 4.1775351610262179 }, "geometry": { "type": "Point", "coordinates": [ -8.59940399302261, 41.163505579193199 ] } },
{ "type": "Feature", "properties": { "name": "LIMA", "id": "metro/bus_LIMA2", "W_candidate": 4.005076581465822 }, "geometry": { "type": "Point", "coordinates": [ -8.599709508175319, 41.163088882518998 ] } },
{ "type": "Feature", "properties": { "name": "COMBATENTES", "id": "metro/bus_COMB3", "W_candidate": 4.0698121516809218 }, "geometry": { "type": "Point", "coordinates": [ -8.59807071343336, 41.165338936142902 ] } },
{ "type": "Feature", "properties": { "name": "COMBATENTES", "id": "metro/bus_COMB4", "W_candidate": 3.5244467706604583 }, "geometry": { "type": "Point", "coordinates": [ -8.59801505816703, 41.1655055599403 ] } },
{ "type": "Feature", "properties": { "name": "DIOGO CÃO", "id": "metro/bus_DC4", "W_candidate": 4.4146872181556125 }, "geometry": { "type": "Point", "coordinates": [ -8.59222508771234, 41.164524239223603 ] } },
{ "type": "Feature", "properties": { "name": "DIOGO CÃO", "id": "metro/bus_DC5", "W_candidate": 4.0692175369617178 }, "geometry": { "type": "Point", "coordinates": [ -8.592348360856411, 41.1647556060664 ] } },
{ "type": "Feature", "properties": { "name": "PINTO BESSA", "id": "metro/bus_PBSS4", "W_candidate": 7.7203174467294033 }, "geometry": { "type": "Point", "coordinates": [ -8.58852770790417, 41.149555495945499 ] } },
{ "type": "Feature", "properties": { "name": "AV. 25 DE ABRIL", "id": "metro/bus_A25A1", "W_candidate": 0.49014163842224745 }, "geometry": { "type": "Point", "coordinates": [ -8.586083273831679, 41.155527789663402 ] } },
{ "type": "Feature", "properties": { "name": "FALCÃO", "id": "metro/bus_FALC", "W_candidate": 1.8250192906466653 }, "geometry": { "type": "Point", "coordinates": [ -8.57522226709904, 41.160277801184698 ] } },
{ "type": "Feature", "properties": { "name": "CARTES", "id": "metro/bus_CRT2", "W_candidate": 3.4197983042943392 }, "geometry": { "type": "Point", "coordinates": [ -8.57294446968271, 41.161361113683803 ] } },
{ "type": "Feature", "properties": { "name": "PEDRAS SALGADAS", "id": "metro/bus_PSG1", "W_candidate": 3.785738083867094 }, "geometry": { "type": "Point", "coordinates": [ -8.5697777180413, 41.159055497315201 ] } },
{ "type": "Feature", "properties": { "name": "CERCO DO PORTO", "id": "metro/bus_CPTO1", "W_candidate": 3.7154401725329889 }, "geometry": { "type": "Point", "coordinates": [ -8.57028567381111, 41.160404835414703 ] } },
{ "type": "Feature", "properties": { "name": "ESTÁDIO DO DRAGÃO", "id": "metro/bus_EDRG1", "W_candidate": 3.055794929823564 }, "geometry": { "type": "Point", "coordinates": [ -8.58380550692549, 41.160277764003801 ] } },
{ "type": "Feature", "properties": { "name": "ESTÁDIO DO DRAGÃO", "id": "metro/bus_EDRG2", "W_candidate": 2.8442258047924218 }, "geometry": { "type": "Point", "coordinates": [ -8.58186114728745, 41.1614722272002 ] } },
{ "type": "Feature", "properties": { "name": "PR. DA CORUJEIRA", "id": "metro/bus_PCRJ1", "W_candidate": 1.4238226735952213 }, "geometry": { "type": "Point", "coordinates": [ -8.579864953946201, 41.1569193474662 ] } },
{ "type": "Feature", "properties": { "name": "BOAVISTA-CASA DA MÚSICA", "id": "metro/bus_BCM1", "W_candidate": 29.273132031272127 }, "geometry": { "type": "Point", "coordinates": [ -8.62954202333796, 41.158903035055197 ] } },
{ "type": "Feature", "properties": { "name": "AV. DO BESSA", "id": "metro/bus_ABSS1", "W_candidate": 2.3045390341201442 }, "geometry": { "type": "Point", "coordinates": [ -8.643090264658751, 41.165279314915402 ] } },
{ "type": "Feature", "properties": { "name": "AV. DO BESSA", "id": "metro/bus_ABSS2", "W_candidate": 2.3045390341201442 }, "geometry": { "type": "Point", "coordinates": [ -8.643139605658529, 41.165035531135601 ] } },
{ "type": "Feature", "properties": { "name": "R. CERCO DO PORTO", "id": "metro/bus_RCP1", "W_candidate": 2.4707547013670221 }, "geometry": { "type": "Point", "coordinates": [ -8.567277807034481, 41.164444389681002 ] } },
{ "type": "Feature", "properties": { "name": "R. CERCO DO PORTO", "id": "metro/bus_RCP2", "W_candidate": 2.3138704732582558 }, "geometry": { "type": "Point", "coordinates": [ -8.567388928693889, 41.164833313746399 ] } },
{ "type": "Feature", "properties": { "name": "SOARES CORREIA", "id": "metro/bus_SOCR", "W_candidate": 3.1560749286320653 }, "geometry": { "type": "Point", "coordinates": [ -8.62998746296401, 41.166783250261702 ] } },
{ "type": "Feature", "properties": { "name": "ALFÂNDEGA", "id": "metro/bus_ALFG5", "W_candidate": 4.6040298556120662 }, "geometry": { "type": "Point", "coordinates": [ -8.622232039578799, 41.143751203926797 ] } },
{ "type": "Feature", "properties": { "name": "FONTINHA", "id": "metro/bus_FTNH2", "W_candidate": 4.4992632692711645 }, "geometry": { "type": "Point", "coordinates": [ -8.60475772390974, 41.155562318791098 ] } },
{ "type": "Feature", "properties": { "name": "CORDOARIA", "id": "metro/bus_CORD2", "W_candidate": 15.267448212225249 }, "geometry": { "type": "Point", "coordinates": [ -8.616424170095341, 41.145029804200398 ] } },
{ "type": "Feature", "properties": { "name": "CORDOARIA", "id": "metro/bus_CORD1", "W_candidate": 18.47615295884804 }, "geometry": { "type": "Point", "coordinates": [ -8.615222193120269, 41.146444473363402 ] } },
{ "type": "Feature", "properties": { "name": "CORDOARIA", "id": "metro/bus_CORD3", "W_candidate": 18.47615295884804 }, "geometry": { "type": "Point", "coordinates": [ -8.615212234852679, 41.146386077376597 ] } },
{ "type": "Feature", "properties": { "name": "CORDOARIA", "id": "metro/bus_CORD5", "W_candidate": 17.26924776184801 }, "geometry": { "type": "Point", "coordinates": [ -8.61532061006743, 41.1461721311939 ] } },
{ "type": "Feature", "properties": { "name": "CORDOARIA", "id": "metro/bus_CORD4", "W_candidate": 16.279139791555757 }, "geometry": { "type": "Point", "coordinates": [ -8.61619439750697, 41.145111088569202 ] } },
{ "type": "Feature", "properties": { "name": "CORDOARIA", "id": "metro/bus_CORD7", "W_candidate": 17.152256772404034 }, "geometry": { "type": "Point", "coordinates": [ -8.61602608073269, 41.145223719249699 ] } },
{ "type": "Feature", "properties": { "name": "S. LÁZARO", "id": "metro/bus_SLZ1", "W_candidate": 9.1053355804189131 }, "geometry": { "type": "Point", "coordinates": [ -8.60250756990213, 41.145526545214501 ] } },
{ "type": "Feature", "properties": { "name": "CORDOARIA VELHA", "id": "metro/bus_CRVH1", "W_candidate": 6.4158093491793586 }, "geometry": { "type": "Point", "coordinates": [ -8.650462352460661, 41.1479385618698 ] } },
{ "type": "Feature", "properties": { "name": "CARVALHIDO", "id": "metro/bus_CVI2", "W_candidate": 8.3595141775955639 }, "geometry": { "type": "Point", "coordinates": [ -8.62524994840412, 41.166749973258902 ] } },
{ "type": "Feature", "properties": { "name": "PADRE LUIS CABRAL", "id": "metro/bus_PCL1", "W_candidate": 1.0925758359478066 }, "geometry": { "type": "Point", "coordinates": [ -8.668055547998151, 41.151805581092198 ] } },
{ "type": "Feature", "properties": { "name": "GOMES COSTA 1", "id": "metro/bus_GC11", "W_candidate": 4.0881884728507849 }, "geometry": { "type": "Point", "coordinates": [ -8.65698756221216, 41.161671921178403 ] } },
{ "type": "Feature", "properties": { "name": "FOCO", "id": "metro/bus_FOCO3", "W_candidate": 3.9262188436769043 }, "geometry": { "type": "Point", "coordinates": [ -8.64793196996537, 41.161033114014899 ] } },
{ "type": "Feature", "properties": { "name": "PAULO DA GAMA", "id": "metro/bus_PGM2", "W_candidate": 4.1403476083836104 }, "geometry": { "type": "Point", "coordinates": [ -8.65728648510656, 41.1480468467105 ] } },
{ "type": "Feature", "properties": { "name": "LORDELO", "id": "metro/bus_LRD1", "W_candidate": 4.1376606167972625 }, "geometry": { "type": "Point", "coordinates": [ -8.649027710344461, 41.154388913035 ] } },
{ "type": "Feature", "properties": { "name": "PINHAIS DA FOZ", "id": "metro/bus_PFOZ2", "W_candidate": 3.7726663494114874 }, "geometry": { "type": "Point", "coordinates": [ -8.66326007592277, 41.155144519572701 ] } },
{ "type": "Feature", "properties": { "name": "PINHAIS DA FOZ", "id": "metro/bus_PFOZ1", "W_candidate": 3.5612709221916061 }, "geometry": { "type": "Point", "coordinates": [ -8.66308329782543, 41.155249964326202 ] } },
{ "type": "Feature", "properties": { "name": "LICEU GARCIA ORTA", "id": "metro/bus_LGO4", "W_candidate": 2.4661544689520416 }, "geometry": { "type": "Point", "coordinates": [ -8.66677782046248, 41.161527739859203 ] } },
{ "type": "Feature", "properties": { "name": "MARTIM FREITAS", "id": "metro/bus_MF1", "W_candidate": 1.3975963747154636 }, "geometry": { "type": "Point", "coordinates": [ -8.662503289076829, 41.174164874953703 ] } },
{ "type": "Feature", "properties": { "name": "PARQUE DA CIDADE", "id": "metro/bus_PRCD3", "W_candidate": 3.8771687876272245 }, "geometry": { "type": "Point", "coordinates": [ -8.67121770096046, 41.165106483390701 ] } },
{ "type": "Feature", "properties": { "name": "PARQUE CIDADE", "id": "metro/bus_PRCD2", "W_candidate": 3.9997443922103777 }, "geometry": { "type": "Point", "coordinates": [ -8.67091664361759, 41.165722161698802 ] } },
{ "type": "Feature", "properties": { "name": "PARQUE CIDADE", "id": "metro/bus_PRCD1", "W_candidate": 3.9997443922103777 }, "geometry": { "type": "Point", "coordinates": [ -8.67073871431791, 41.165456288650603 ] } },
{ "type": "Feature", "properties": { "name": "BAIRRO ANT. AROSO", "id": "metro/bus_BARO1", "W_candidate": 1.4799700947950003 }, "geometry": { "type": "Point", "coordinates": [ -8.6695151846345, 41.167897291530998 ] } },
{ "type": "Feature", "properties": { "name": "PEDRA VERDE", "id": "metro/bus_PDVD4", "W_candidate": 1.5448012994795062 }, "geometry": { "type": "Point", "coordinates": [ -8.662849271015119, 41.1728851305907 ] } },
{ "type": "Feature", "properties": { "name": "IGREJA DE ALDOAR", "id": "metro/bus_IGAL1", "W_candidate": 0.87303135836434032 }, "geometry": { "type": "Point", "coordinates": [ -8.66641737733975, 41.17008776155 ] } },
{ "type": "Feature", "properties": { "name": "PEDRA VERDE", "id": "metro/bus_PDVD3", "W_candidate": 1.3256570076326386 }, "geometry": { "type": "Point", "coordinates": [ -8.662902497370981, 41.172614398208303 ] } },
{ "type": "Feature", "properties": { "name": "LIDADOR", "id": "metro/bus_LDD2", "W_candidate": 6.2042907238938625 }, "geometry": { "type": "Point", "coordinates": [ -8.65748178273337, 41.170306534166301 ] } },
{ "type": "Feature", "properties": { "name": "TEATRO VILARINHA", "id": "metro/bus_TVLR2", "W_candidate": 1.0215979760866587 }, "geometry": { "type": "Point", "coordinates": [ -8.673474675383931, 41.173238150626503 ] } },
{ "type": "Feature", "properties": { "name": "LICEU GARCIA ORTA", "id": "metro/bus_LGO5", "W_candidate": 2.5921214326249582 }, "geometry": { "type": "Point", "coordinates": [ -8.66636107379378, 41.161472227166001 ] } },
{ "type": "Feature", "properties": { "name": "CORREIA PINTO", "id": "metro/bus_CRRP2", "W_candidate": 5.5400810552441424 }, "geometry": { "type": "Point", "coordinates": [ -8.658764392070021, 41.168812995006597 ] } },
{ "type": "Feature", "properties": { "name": "FONTE DA MOURA", "id": "metro/bus_FTM2", "W_candidate": 6.1464129206086131 }, "geometry": { "type": "Point", "coordinates": [ -8.66264612362605, 41.164191487547001 ] } },
{ "type": "Feature", "properties": { "name": "BR. FONTE DA MOURA", "id": "metro/bus_BFTM2", "W_candidate": 6.4032170596053124 }, "geometry": { "type": "Point", "coordinates": [ -8.658453109776721, 41.171085376146898 ] } },
{ "type": "Feature", "properties": { "name": "FONTE DA MOURA", "id": "metro/bus_FTM4", "W_candidate": 6.1464129206086131 }, "geometry": { "type": "Point", "coordinates": [ -8.663444627508779, 41.163758393263798 ] } },
{ "type": "Feature", "properties": { "name": "BAIRRO VILARINHA", "id": "metro/bus_BRV2", "W_candidate": 3.3615528934865528 }, "geometry": { "type": "Point", "coordinates": [ -8.660067588042439, 41.167204542838903 ] } },
{ "type": "Feature", "properties": { "name": "LICEU GARCIA ORTA", "id": "metro/bus_LGO2", "W_candidate": 2.8841425597680761 }, "geometry": { "type": "Point", "coordinates": [ -8.667762845317259, 41.164488078712203 ] } },
{ "type": "Feature", "properties": { "name": "ESCOLA NORMAL", "id": "metro/bus_ESCN2", "W_candidate": 4.4238322619785375 }, "geometry": { "type": "Point", "coordinates": [ -8.60252681207867, 41.155514367794503 ] } },
{ "type": "Feature", "properties": { "name": "EIRINHAS", "id": "metro/bus_EIR3", "W_candidate": 2.2695124839125072 }, "geometry": { "type": "Point", "coordinates": [ -8.592238837164141, 41.152202119394303 ] } },
{ "type": "Feature", "properties": { "name": "BONFIM", "id": "metro/bus_BFM4", "W_candidate": 3.2699873209923971 }, "geometry": { "type": "Point", "coordinates": [ -8.59475001263672, 41.150583353349901 ] } },
{ "type": "Feature", "properties": { "name": "MONTE AVENTINO", "id": "metro/bus_MAV2", "W_candidate": 5.7305639920129909 }, "geometry": { "type": "Point", "coordinates": [ -8.5904444863076, 41.163105247200399 ] } },
{ "type": "Feature", "properties": { "name": "ASPRELA", "id": "metro/bus_ASP4", "W_candidate": 3.1858595721148211 }, "geometry": { "type": "Point", "coordinates": [ -8.596472185420589, 41.182194396462698 ] } },
{ "type": "Feature", "properties": { "name": "PESO DA RÉGUA", "id": "metro/bus_PREG1", "W_candidate": 3.52461997499619 }, "geometry": { "type": "Point", "coordinates": [ -8.569511979838969, 41.162307676746799 ] } },
{ "type": "Feature", "properties": { "name": "COVELO", "id": "metro/bus_CVLO2", "W_candidate": 4.0044970156684663 }, "geometry": { "type": "Point", "coordinates": [ -8.60588358431793, 41.1653737738053 ] } },
{ "type": "Feature", "properties": { "name": "GUIL. G. FERNANDES", "id": "metro/bus_GGF", "W_candidate": 23.987697281279001 }, "geometry": { "type": "Point", "coordinates": [ -8.614766648882981, 41.147560212865301 ] } },
{ "type": "Feature", "properties": { "name": "CARMO", "id": "metro/bus_CMO", "W_candidate": 19.78132930080692 }, "geometry": { "type": "Point", "coordinates": [ -8.61695947381185, 41.1472276569054 ] } },
{ "type": "Feature", "properties": { "name": "MIOSÓTIS", "id": "metro/bus_MIS3", "W_candidate": 1.4544743855313733 }, "geometry": { "type": "Point", "coordinates": [ -8.619060893487219, 41.177785165503899 ] } },
{ "type": "Feature", "properties": { "name": "COLISEU DO PORTO", "id": "metro/bus_COLS", "W_candidate": 11.75412126442532 }, "geometry": { "type": "Point", "coordinates": [ -8.60469448708929, 41.146611070392503 ] } },
{ "type": "Feature", "properties": { "name": "PR. D. JOÃO I", "id": "metro/bus_PRDJ", "W_candidate": 37.522339577373835 }, "geometry": { "type": "Point", "coordinates": [ -8.60912607741907, 41.147581196769899 ] } },
{ "type": "Feature", "properties": { "name": "R.TELHEIRA", "id": "metro/bus_TLHR3", "W_candidate": 3.5284479941679208 }, "geometry": { "type": "Point", "coordinates": [ -8.61461084505317, 41.177828842724097 ] } },
{ "type": "Feature", "properties": { "name": "MIOSÓTIS", "id": "metro/bus_MIS4", "W_candidate": 1.4544743855313733 }, "geometry": { "type": "Point", "coordinates": [ -8.61898154826045, 41.178062110967602 ] } },
{ "type": "Feature", "properties": { "name": "BR. DO AMIAL", "id": "metro/bus_BRA5", "W_candidate": 2.486587082455376 }, "geometry": { "type": "Point", "coordinates": [ -8.619999961439239, 41.176833314669601 ] } },
{ "type": "Feature", "properties": { "name": "JULGADO DE PAZ", "id": "metro/bus_JPAZ2", "W_candidate": 2.1123471029654008 }, "geometry": { "type": "Point", "coordinates": [ -8.64472226407109, 41.175666640117299 ] } },
{ "type": "Feature", "properties": { "name": "RAMALDE DO MEIO", "id": "metro/bus_RM4", "W_candidate": 1.3133904590907206 }, "geometry": { "type": "Point", "coordinates": [ -8.64213887205295, 41.173333321651597 ] } },
{ "type": "Feature", "properties": { "name": "FRANCOS (BOMBEIROS)", "id": "metro/bus_FRB", "W_candidate": 0.9416541795193023 }, "geometry": { "type": "Point", "coordinates": [ -8.64292613473066, 41.170471167506498 ] } },
{ "type": "Feature", "properties": { "name": "PARAÍSO (METRO)", "id": "metro/bus_PRSM1", "W_candidate": 3.7415017128889572 }, "geometry": { "type": "Point", "coordinates": [ -8.609102324092641, 41.157054057650299 ] } },
{ "type": "Feature", "properties": { "name": "PARAÍSO (METRO)", "id": "metro/bus_PRSM2", "W_candidate": 3.5444085849541636 }, "geometry": { "type": "Point", "coordinates": [ -8.61006701903923, 41.156993330371201 ] } },
{ "type": "Feature", "properties": { "name": "GONÇALO SAMPAIO", "id": "metro/bus_GONS2", "W_candidate": 4.6078504803709697 }, "geometry": { "type": "Point", "coordinates": [ -8.63154248514005, 41.154081238456598 ] } },
{ "type": "Feature", "properties": { "name": "GONÇALO SAMPAIO", "id": "metro/bus_GONS1", "W_candidate": 3.1561698115637378 }, "geometry": { "type": "Point", "coordinates": [ -8.631959587420949, 41.154005413517297 ] } },
{ "type": "Feature", "properties": { "name": "BARROCAS", "id": "metro/bus_BRRS1", "W_candidate": 4.7727964588104559 }, "geometry": { "type": "Point", "coordinates": [ -8.58749002319739, 41.1724397906059 ] } },
{ "type": "Feature", "properties": { "name": "BARROCAS", "id": "metro/bus_BRRS2", "W_candidate": 2.19004506067375 }, "geometry": { "type": "Point", "coordinates": [ -8.5880254347578, 41.171855547344997 ] } },
{ "type": "Feature", "properties": { "name": "BAIRRO ANT. AROSO", "id": "metro/bus_BARO2", "W_candidate": 0.70784447088554148 }, "geometry": { "type": "Point", "coordinates": [ -8.669161179805499, 41.168336368956297 ] } },
{ "type": "Feature", "properties": { "name": "PASSEIO ALEGRE", "id": "metro/bus_PASS2", "W_candidate": 7.4294630548405927 }, "geometry": { "type": "Point", "coordinates": [ -8.66767010345249, 41.1476855828992 ] } },
{ "type": "Feature", "properties": { "name": "ENTRE QUINTAS", "id": "metro/bus_EQ4", "W_candidate": 2.3413936209420729 }, "geometry": { "type": "Point", "coordinates": [ -8.628653932113179, 41.145644213586699 ] } },
{ "type": "Feature", "properties": { "name": "ENTRE QUINTAS", "id": "metro/bus_EQ3", "W_candidate": 2.3413936209420729 }, "geometry": { "type": "Point", "coordinates": [ -8.62870949813162, 41.145588687702102 ] } },
{ "type": "Feature", "properties": { "name": "S. ROQUE", "id": "metro/bus_SR2", "W_candidate": 2.7875359455472903 }, "geometry": { "type": "Point", "coordinates": [ -8.56934937734291, 41.166147169913998 ] } },
{ "type": "Feature", "properties": { "name": "PERPÉTUO SOCORRO", "id": "metro/bus_PSOC2", "W_candidate": 11.037981679175346 }, "geometry": { "type": "Point", "coordinates": [ -8.603609867350469, 41.162377307570303 ] } },
{ "type": "Feature", "properties": { "name": "MONSANTO", "id": "metro/bus_MSTO1", "W_candidate": 2.0924529787286192 }, "geometry": { "type": "Point", "coordinates": [ -8.62042710383199, 41.170532321156898 ] } },
{ "type": "Feature", "properties": { "name": "PINTO BESSA", "id": "metro/bus_PBSS1", "W_candidate": 7.7203174467294033 }, "geometry": { "type": "Point", "coordinates": [ -8.58815952966035, 41.148924764361198 ] } },
{ "type": "Feature", "properties": { "name": "BONFIM BARREIROS", "id": "metro/bus_BFB", "W_candidate": 1.7624896101676117 }, "geometry": { "type": "Point", "coordinates": [ -8.584274602357359, 41.169273964944402 ] } },
{ "type": "Feature", "properties": { "name": "ESTÁDIO DO DRAGÃO", "id": "metro/bus_EDRG3", "W_candidate": 2.7620493697542687 }, "geometry": { "type": "Point", "coordinates": [ -8.58361110672841, 41.158583293780197 ] } },
{ "type": "Feature", "properties": { "name": "AREOSA", "id": "metro/bus_ARS4", "W_candidate": 4.3224595717253687 }, "geometry": { "type": "Point", "coordinates": [ -8.58261235632332, 41.1805808017318 ] } },
{ "type": "Feature", "properties": { "name": "D.JOÃO III", "id": "metro/bus_DJ32", "W_candidate": 2.5878890255121885 }, "geometry": { "type": "Point", "coordinates": [ -8.66029160246177, 41.1576068812087 ] } },
{ "type": "Feature", "properties": { "name": "BR. COSTA CABRAL", "id": "metro/bus_BRCC2", "W_candidate": 3.9964186743897483 }, "geometry": { "type": "Point", "coordinates": [ -8.585975267335, 41.171743801128599 ] } },
{ "type": "Feature", "properties": { "name": "PIRES DE LIMA", "id": "metro/bus_PLIM1", "W_candidate": 2.3356443732012977 }, "geometry": { "type": "Point", "coordinates": [ -8.596860062406231, 41.166207427065601 ] } },
{ "type": "Feature", "properties": { "name": "BR. CAMPINAS", "id": "metro/bus_BRCP1", "W_candidate": 5.5442336262965561 }, "geometry": { "type": "Point", "coordinates": [ -8.650897728861411, 41.169052384602203 ] } },
{ "type": "Feature", "properties": { "name": "MONSANTO", "id": "metro/bus_MSTO2", "W_candidate": 2.3658813463706134 }, "geometry": { "type": "Point", "coordinates": [ -8.6201911857691, 41.170358909367003 ] } },
{ "type": "Feature", "properties": { "name": "COUTINHO AZEVEDO", "id": "metro/bus_CAZ", "W_candidate": 1.8352313806781986 }, "geometry": { "type": "Point", "coordinates": [ -8.596993997148109, 41.1593320467856 ] } },
{ "type": "Feature", "properties": { "name": "NAVE", "id": "metro/bus_NAVE2", "W_candidate": 4.1645918739526264 }, "geometry": { "type": "Point", "coordinates": [ -8.59745626331974, 41.151585428919297 ] } },
{ "type": "Feature", "properties": { "name": "VARANDAS", "id": "metro/bus_VRD1", "W_candidate": 0.16574070535779858 }, "geometry": { "type": "Point", "coordinates": [ -8.58754270859554, 41.142247647358602 ] } },
{ "type": "Feature", "properties": { "name": "MOREDA", "id": "metro/bus_MRD", "W_candidate": 12.086823800132489 }, "geometry": { "type": "Point", "coordinates": [ -8.600222187091701, 41.1508333457869 ] } },
{ "type": "Feature", "properties": { "name": "CAMPO 24 DE AGOSTO", "id": "metro/bus_C24A1", "W_candidate": 11.124853546199127 }, "geometry": { "type": "Point", "coordinates": [ -8.59839327398482, 41.148754745937097 ] } },
{ "type": "Feature", "properties": { "name": "GUINDAIS", "id": "metro/bus_GND2", "W_candidate": 2.8464739365159435 }, "geometry": { "type": "Point", "coordinates": [ -8.605910636904589, 41.141591046828999 ] } },
{ "type": "Feature", "properties": { "name": "FORNOS", "id": "metro/bus_FRNS1", "W_candidate": 0.1699226773677581 }, "geometry": { "type": "Point", "coordinates": [ -8.59119316068959, 41.140274627981199 ] } },
{ "type": "Feature", "properties": { "name": "MONTE AVENTINO", "id": "metro/bus_MAV1", "W_candidate": 5.7305639920129909 }, "geometry": { "type": "Point", "coordinates": [ -8.59022589788694, 41.163061095859597 ] } },
{ "type": "Feature", "properties": { "name": "PTE.D.MARIA PIA", "id": "metro/bus_PTDM1", "W_candidate": 0.31962615410449541 }, "geometry": { "type": "Point", "coordinates": [ -8.59585823194325, 41.140289340494199 ] } },
{ "type": "Feature", "properties": { "name": "ESCOLAS", "id": "metro/bus_ESCL", "W_candidate": 2.0113269803740459 }, "geometry": { "type": "Point", "coordinates": [ -8.570370448417579, 41.164186302507602 ] } },
{ "type": "Feature", "properties": { "name": "IGREJA CEDOFEITA", "id": "metro/bus_ICDF1", "W_candidate": 5.0564573048841872 }, "geometry": { "type": "Point", "coordinates": [ -8.622266000635319, 41.155824527351299 ] } },
{ "type": "Feature", "properties": { "name": "AV.FRANÇA", "id": "metro/bus_AVF2", "W_candidate": 7.2051948962171144 }, "geometry": { "type": "Point", "coordinates": [ -8.62586700155765, 41.1646167439743 ] } },
{ "type": "Feature", "properties": { "name": "SAPADOR. BOMBEIROS", "id": "metro/bus_BSB", "W_candidate": 3.3359187453770787 }, "geometry": { "type": "Point", "coordinates": [ -8.61567464751422, 41.163368071324001 ] } },
{ "type": "Feature", "properties": { "name": "BCG", "id": "metro/bus_BCG", "W_candidate": 3.5281826916586727 }, "geometry": { "type": "Point", "coordinates": [ -8.61795859816389, 41.163655236618503 ] } },
{ "type": "Feature", "properties": { "name": "PISCINA CONSTIT.", "id": "metro/bus_PISC", "W_candidate": 5.7502706252738589 }, "geometry": { "type": "Point", "coordinates": [ -8.61303009999801, 41.163038426671797 ] } },
{ "type": "Feature", "properties": { "name": "HOSPITAL MILITAR", "id": "metro/bus_HML1", "W_candidate": 5.5625303829373189 }, "geometry": { "type": "Point", "coordinates": [ -8.624218140720179, 41.1571757541221 ] } },
{ "type": "Feature", "properties": { "name": "PR. DA REPÚBLICA", "id": "metro/bus_PRR5", "W_candidate": 4.9365995947933765 }, "geometry": { "type": "Point", "coordinates": [ -8.613388377570461, 41.154604710865698 ] } },
{ "type": "Feature", "properties": { "name": "CRUZ VERMELHA", "id": "metro/bus_CZV1", "W_candidate": 2.4969471714187681 }, "geometry": { "type": "Point", "coordinates": [ -8.624642112040251, 41.160797434474098 ] } },
{ "type": "Feature", "properties": { "name": "NATÁRIA", "id": "metro/bus_NAT2", "W_candidate": 9.6952535084406719 }, "geometry": { "type": "Point", "coordinates": [ -8.624305602250169, 41.167222234760899 ] } },
{ "type": "Feature", "properties": { "name": "MONTE CATIVO", "id": "metro/bus_MTCV", "W_candidate": 3.3359187453770787 }, "geometry": { "type": "Point", "coordinates": [ -8.616060586940311, 41.162269191573202 ] } },
{ "type": "Feature", "properties": { "name": "CAROLINA MICHAELIS", "id": "metro/bus_CMIC2", "W_candidate": 6.8620708796063914 }, "geometry": { "type": "Point", "coordinates": [ -8.622771485579721, 41.158107205564399 ] } },
{ "type": "Feature", "properties": { "name": "MATERNIDADE", "id": "metro/bus_MATR", "W_candidate": 4.2607810963670421 }, "geometry": { "type": "Point", "coordinates": [ -8.62276468441399, 41.150982790463502 ] } },
{ "type": "Feature", "properties": { "name": "FIGUEIROA", "id": "metro/bus_FIG", "W_candidate": 3.126359808702369 }, "geometry": { "type": "Point", "coordinates": [ -8.616856426128511, 41.155956379919502 ] } },
{ "type": "Feature", "properties": { "name": "HOSPITAL MILITAR", "id": "metro/bus_HML2", "W_candidate": 10.617100867325684 }, "geometry": { "type": "Point", "coordinates": [ -8.625083890311281, 41.156806567847397 ] } },
{ "type": "Feature", "properties": { "name": "FONTE DE CONTUMIL", "id": "metro/bus_FTC1", "W_candidate": 1.2353773594897031 }, "geometry": { "type": "Point", "coordinates": [ -8.58274934725725, 41.168299652404002 ] } },
{ "type": "Feature", "properties": { "name": "NATÁRIA", "id": "metro/bus_NAT1", "W_candidate": 9.6952535084406719 }, "geometry": { "type": "Point", "coordinates": [ -8.624222190384, 41.167333343505803 ] } },
{ "type": "Feature", "properties": { "name": "QUINTA AMARELA", "id": "metro/bus_QTAM1", "W_candidate": 2.1132846737487161 }, "geometry": { "type": "Point", "coordinates": [ -8.62468918474945, 41.162309947618503 ] } },
{ "type": "Feature", "properties": { "name": "QUINTA AMARELA", "id": "metro/bus_QTAM2", "W_candidate": 2.6465945781386515 }, "geometry": { "type": "Point", "coordinates": [ -8.624868850294471, 41.162753988881803 ] } },
{ "type": "Feature", "properties": { "name": "ANTERO DE QUENTAL", "id": "metro/bus_AQL1", "W_candidate": 7.7383626183887211 }, "geometry": { "type": "Point", "coordinates": [ -8.610197000084611, 41.162680510621399 ] } },
{ "type": "Feature", "properties": { "name": "CARVALHIDO", "id": "metro/bus_CVI1", "W_candidate": 7.8890175116245755 }, "geometry": { "type": "Point", "coordinates": [ -8.624994800495401, 41.166522628082198 ] } },
{ "type": "Feature", "properties": { "name": "CARVALHIDO", "id": "metro/bus_CVI3", "W_candidate": 8.3595141775955639 }, "geometry": { "type": "Point", "coordinates": [ -8.62602776701539, 41.167000018661497 ] } },
{ "type": "Feature", "properties": { "name": "JOÃO R. CABRILHO", "id": "metro/bus_JRC1", "W_candidate": 5.5254494759678625 }, "geometry": { "type": "Point", "coordinates": [ -8.659888921133691, 41.155722246374999 ] } },
{ "type": "Feature", "properties": { "name": "SERRALVES", "id": "metro/bus_SRV1", "W_candidate": 5.1804368462638326 }, "geometry": { "type": "Point", "coordinates": [ -8.659209740207, 41.160644110021202 ] } },
{ "type": "Feature", "properties": { "name": "SERRALVES", "id": "metro/bus_SRV2", "W_candidate": 5.4350179790889488 }, "geometry": { "type": "Point", "coordinates": [ -8.657820919006641, 41.160977493584298 ] } },
{ "type": "Feature", "properties": { "name": "TORRES", "id": "metro/bus_TRR4", "W_candidate": 7.161424835745879 }, "geometry": { "type": "Point", "coordinates": [ -8.66421727454817, 41.150529109201997 ] } },
{ "type": "Feature", "properties": { "name": "UNIV. CATÓLICA", "id": "metro/bus_UC1", "W_candidate": 6.2266198226692131 }, "geometry": { "type": "Point", "coordinates": [ -8.670915593746891, 41.153538159589097 ] } },
{ "type": "Feature", "properties": { "name": "UNIV. CATÓLICA", "id": "metro/bus_UC2", "W_candidate": 6.2266198226692131 }, "geometry": { "type": "Point", "coordinates": [ -8.671089210225331, 41.153543289879998 ] } },
{ "type": "Feature", "properties": { "name": "PASTELEIRA", "id": "metro/bus_PT2", "W_candidate": 5.7563814563918356 }, "geometry": { "type": "Point", "coordinates": [ -8.66108335752012, 41.150416678304403 ] } },
{ "type": "Feature", "properties": { "name": "FLUVIAL", "id": "metro/bus_FLU3", "W_candidate": 5.5703852782861967 }, "geometry": { "type": "Point", "coordinates": [ -8.653869555544221, 41.148416247607301 ] } },
{ "type": "Feature", "properties": { "name": "S.TA CATARINA", "id": "metro/bus_STC1", "W_candidate": 3.9194377479313594 }, "geometry": { "type": "Point", "coordinates": [ -8.65099353184922, 41.150704801601599 ] } },
{ "type": "Feature", "properties": { "name": "PINHEIRO MANSO", "id": "metro/bus_PINM3", "W_candidate": 2.4285293312774332 }, "geometry": { "type": "Point", "coordinates": [ -8.65287641523893, 41.161866441264102 ] } },
{ "type": "Feature", "properties": { "name": "PALMEIRAS", "id": "metro/bus_PLM1", "W_candidate": 6.4636346175992605 }, "geometry": { "type": "Point", "coordinates": [ -8.65210707261166, 41.152356022621397 ] } },
{ "type": "Feature", "properties": { "name": "PALMEIRAS", "id": "metro/bus_PLM2", "W_candidate": 5.0018822308657818 }, "geometry": { "type": "Point", "coordinates": [ -8.65133327586126, 41.152636215383801 ] } },
{ "type": "Feature", "properties": { "name": "PAULO DA GAMA", "id": "metro/bus_PG1", "W_candidate": 4.2458508035703044 }, "geometry": { "type": "Point", "coordinates": [ -8.65870721609269, 41.150855812051297 ] } },
{ "type": "Feature", "properties": { "name": "PAULO DA GAMA", "id": "metro/bus_PGM1", "W_candidate": 5.4602818119835437 }, "geometry": { "type": "Point", "coordinates": [ -8.65717778452284, 41.148203296336597 ] } },
{ "type": "Feature", "properties": { "name": "FLUVIAL", "id": "metro/bus_FLU2", "W_candidate": 4.7696292015751398 }, "geometry": { "type": "Point", "coordinates": [ -8.6537039612532, 41.148579704936601 ] } },
{ "type": "Feature", "properties": { "name": "PADRE LUIS CABRAL", "id": "metro/bus_PCL2", "W_candidate": 1.8678774718669096 }, "geometry": { "type": "Point", "coordinates": [ -8.66778580167502, 41.151537338759702 ] } },
{ "type": "Feature", "properties": { "name": "JOÃO BARROS", "id": "metro/bus_JBR2", "W_candidate": 4.3949854250695202 }, "geometry": { "type": "Point", "coordinates": [ -8.664265307354009, 41.158366372248302 ] } },
{ "type": "Feature", "properties": { "name": "VITORINO DAMASIO", "id": "metro/bus_VDAM1", "W_candidate": 1.9782613158565645 }, "geometry": { "type": "Point", "coordinates": [ -8.594143469112201, 41.169294842318003 ] } },
{ "type": "Feature", "properties": { "name": "BOAVISTA - B.SUCESSO", "id": "metro/bus_BS4", "W_candidate": 17.304636497934638 }, "geometry": { "type": "Point", "coordinates": [ -8.62846364594593, 41.155994270768304 ] } },
{ "type": "Feature", "properties": { "name": "BOAVISTA - B.SUCESSO", "id": "metro/bus_BS7", "W_candidate": 16.63420475730657 }, "geometry": { "type": "Point", "coordinates": [ -8.62848743358305, 41.155894310968598 ] } },
{ "type": "Feature", "properties": { "name": "BOM SUCESSO", "id": "metro/bus_BS8", "W_candidate": 14.951108155581927 }, "geometry": { "type": "Point", "coordinates": [ -8.62852017627506, 41.155149787492903 ] } },
{ "type": "Feature", "properties": { "name": "BICALHO", "id": "metro/bus_BIC3", "W_candidate": 2.4673770382151208 }, "geometry": { "type": "Point", "coordinates": [ -8.636999975764709, 41.148388891682202 ] } },
{ "type": "Feature", "properties": { "name": "PONTE ARRÁBIDA", "id": "metro/bus_PARR4", "W_candidate": 3.4103682972310465 }, "geometry": { "type": "Point", "coordinates": [ -8.640139681480569, 41.148404706393002 ] } },
{ "type": "Feature", "properties": { "name": "FLUVIAL", "id": "metro/bus_FLU6", "W_candidate": 4.7696292015751398 }, "geometry": { "type": "Point", "coordinates": [ -8.65374994210878, 41.1484444326302 ] } },
{ "type": "Feature", "properties": { "name": "D.LEONOR", "id": "metro/bus_DL5", "W_candidate": 3.3777531238343199 }, "geometry": { "type": "Point", "coordinates": [ -8.66024993713102, 41.147194455356598 ] } },
{ "type": "Feature", "properties": { "name": "D.LEONOR", "id": "metro/bus_DL6", "W_candidate": 3.3777531238343199 }, "geometry": { "type": "Point", "coordinates": [ -8.66022221231453, 41.147138846089 ] } },
{ "type": "Feature", "properties": { "name": "PINHEIRO MANSO", "id": "metro/bus_PINM5", "W_candidate": 2.7831354513847226 }, "geometry": { "type": "Point", "coordinates": [ -8.65099994372078, 41.1621944735708 ] } },
{ "type": "Feature", "properties": { "name": "PINHEIRO MANSO", "id": "metro/bus_PINM6", "W_candidate": 2.5354661151834259 }, "geometry": { "type": "Point", "coordinates": [ -8.65111249093481, 41.1623998934502 ] } },
{ "type": "Feature", "properties": { "name": "S. JOÃO DE BRITO", "id": "metro/bus_SJB1", "W_candidate": 5.0188283086083105 }, "geometry": { "type": "Point", "coordinates": [ -8.650585370461171, 41.1664935264169 ] } },
{ "type": "Feature", "properties": { "name": "S. JOÃO DE BRITO", "id": "metro/bus_SJB2", "W_candidate": 5.0188283086083105 }, "geometry": { "type": "Point", "coordinates": [ -8.65060429885864, 41.166385570379397 ] } },
{ "type": "Feature", "properties": { "name": "SRA.CAMPANHÃ", "id": "metro/bus_SRC1", "W_candidate": 0.52256996206801309 }, "geometry": { "type": "Point", "coordinates": [ -8.57431220672404, 41.166437421853999 ] } },
{ "type": "Feature", "properties": { "name": "SOUTO CONTUMIL", "id": "metro/bus_STCT", "W_candidate": 1.6362570070412963 }, "geometry": { "type": "Point", "coordinates": [ -8.5785771183227, 41.167279247719897 ] } },
{ "type": "Feature", "properties": { "name": "CAMPANHÃ", "id": "metro/bus_CMP1", "W_candidate": 8.5485740012254325 }, "geometry": { "type": "Point", "coordinates": [ -8.58589257517866, 41.149661716686403 ] } },
{ "type": "Feature", "properties": { "name": "R. CONTUMIL", "id": "metro/bus_RC1", "W_candidate": 2.5041887102436902 }, "geometry": { "type": "Point", "coordinates": [ -8.58680449009278, 41.169687381201904 ] } },
{ "type": "Feature", "properties": { "name": "NAVAS TOLOSA", "id": "metro/bus_NVT", "W_candidate": 1.5563341339560366 }, "geometry": { "type": "Point", "coordinates": [ -8.57134479390214, 41.168242247951703 ] } },
{ "type": "Feature", "properties": { "name": "CORUJEIRA", "id": "metro/bus_CRJ2", "W_candidate": 3.3541941727188496 }, "geometry": { "type": "Point", "coordinates": [ -8.580804016848029, 41.159419327973303 ] } },
{ "type": "Feature", "properties": { "name": "CONTUMIL (METRO)", "id": "metro/bus_CNTM2", "W_candidate": 1.7514582399564524 }, "geometry": { "type": "Point", "coordinates": [ -8.57856837481981, 41.165991673420898 ] } },
{ "type": "Feature", "properties": { "name": "AREINHO", "id": "metro/bus_ARNH2", "W_candidate": 1.2570634989712615 }, "geometry": { "type": "Point", "coordinates": [ -8.57870932399767, 41.144338916263003 ] } },
{ "type": "Feature", "properties": { "name": "PARQUE NASCENTE", "id": "metro/bus_PQN1", "W_candidate": 1.2697159343530819 }, "geometry": { "type": "Point", "coordinates": [ -8.56744899660946, 41.174642316748397 ] } },
{ "type": "Feature", "properties": { "name": "BR.CERCO PORTO", "id": "metro/bus_BCP1", "W_candidate": 2.5130205816155486 }, "geometry": { "type": "Point", "coordinates": [ -8.570491394184639, 41.157306584583601 ] } },
{ "type": "Feature", "properties": { "name": "J.A.E.", "id": "metro/bus_JAE1", "W_candidate": 0.78862152204640257 }, "geometry": { "type": "Point", "coordinates": [ -8.582209361348839, 41.143811143171199 ] } },
{ "type": "Feature", "properties": { "name": "J.A.E.", "id": "metro/bus_JAE2", "W_candidate": 0.34285068262916751 }, "geometry": { "type": "Point", "coordinates": [ -8.5827370378595, 41.1436722141313 ] } },
{ "type": "Feature", "properties": { "name": "EDP", "id": "metro/bus_EDP1", "W_candidate": 1.2570634989712615 }, "geometry": { "type": "Point", "coordinates": [ -8.57966752235841, 41.145412648837997 ] } },
{ "type": "Feature", "properties": { "name": "RANHA", "id": "metro/bus_RNH1", "W_candidate": 0.7485705873343349 }, "geometry": { "type": "Point", "coordinates": [ -8.5675233133519, 41.176866083168299 ] } },
{ "type": "Feature", "properties": { "name": "S. PEDRO", "id": "metro/bus_SP3", "W_candidate": 0.36188637473988716 }, "geometry": { "type": "Point", "coordinates": [ -8.57331524969918, 41.146939439365198 ] } },
{ "type": "Feature", "properties": { "name": "TORRINHA", "id": "metro/bus_TRH1", "W_candidate": 3.7742150111025365 }, "geometry": { "type": "Point", "coordinates": [ -8.620940385361729, 41.153276643314499 ] } },
{ "type": "Feature", "properties": { "name": "TORRINHA", "id": "metro/bus_TRH2", "W_candidate": 3.4632254322370999 }, "geometry": { "type": "Point", "coordinates": [ -8.621056318947479, 41.153167019365902 ] } },
{ "type": "Feature", "properties": { "name": "BOAVISTA BRASÍLIA", "id": "metro/bus_BVBR2", "W_candidate": 26.432941511575329 }, "geometry": { "type": "Point", "coordinates": [ -8.62667225845162, 41.157586638723899 ] } },
{ "type": "Feature", "properties": { "name": "RAMADA ALTA", "id": "metro/bus_RA2", "W_candidate": 3.9898403369691224 }, "geometry": { "type": "Point", "coordinates": [ -8.62121078757127, 41.160803057027103 ] } },
{ "type": "Feature", "properties": { "name": "CEDOFEITA", "id": "metro/bus_CDF1", "W_candidate": 5.1699623683312375 }, "geometry": { "type": "Point", "coordinates": [ -8.61864303435298, 41.155092899259998 ] } },
{ "type": "Feature", "properties": { "name": "CEDOFEITA", "id": "metro/bus_CDF2", "W_candidate": 4.7820019947789572 }, "geometry": { "type": "Point", "coordinates": [ -8.61892979230092, 41.1545297310713 ] } },
{ "type": "Feature", "properties": { "name": "LAPA", "id": "metro/bus_LAPA2", "W_candidate": 3.5688219940790766 }, "geometry": { "type": "Point", "coordinates": [ -8.612993788274521, 41.156964846413302 ] } },
{ "type": "Feature", "properties": { "name": "PR. DA REPÚBLICA", "id": "metro/bus_PRR7", "W_candidate": 3.3288154650022208 }, "geometry": { "type": "Point", "coordinates": [ -8.61393417585689, 41.1542209174861 ] } },
{ "type": "Feature", "properties": { "name": "BOAVISTA-CASA DA MÚSICA", "id": "metro/bus_BCM3", "W_candidate": 29.45759974105896 }, "geometry": { "type": "Point", "coordinates": [ -8.628618576088, 41.159457540976703 ] } },
{ "type": "Feature", "properties": { "name": "BOAVISTA-CASA DA MÚSICA", "id": "metro/bus_BCM4", "W_candidate": 29.008801602935396 }, "geometry": { "type": "Point", "coordinates": [ -8.630177846128159, 41.158945757958797 ] } },
{ "type": "Feature", "properties": { "name": "ANTERO DE QUENTAL", "id": "metro/bus_AQL2", "W_candidate": 8.5359776096864639 }, "geometry": { "type": "Point", "coordinates": [ -8.61097088960214, 41.161620105104603 ] } },
{ "type": "Feature", "properties": { "name": "CARVALHIDO", "id": "metro/bus_CVI4", "W_candidate": 8.0198635960527263 }, "geometry": { "type": "Point", "coordinates": [ -8.626488552817101, 41.1663199313993 ] } },
{ "type": "Feature", "properties": { "name": "SERPA PINTO", "id": "metro/bus_SPTO1", "W_candidate": 2.3022316754283607 }, "geometry": { "type": "Point", "coordinates": [ -8.62194993392642, 41.164126355751101 ] } },
{ "type": "Feature", "properties": { "name": "RAMADA ALTA", "id": "metro/bus_RA1", "W_candidate": 3.9747171086873232 }, "geometry": { "type": "Point", "coordinates": [ -8.62208327081041, 41.160305554208897 ] } },
{ "type": "Feature", "properties": { "name": "CRUZ VERMELHA", "id": "metro/bus_CZV3", "W_candidate": 13.34707442890557 }, "geometry": { "type": "Point", "coordinates": [ -8.625293605425661, 41.159527837135002 ] } },
{ "type": "Feature", "properties": { "name": "CRUZ VERMELHA", "id": "metro/bus_CZV4", "W_candidate": 4.048591311863853 }, "geometry": { "type": "Point", "coordinates": [ -8.6237796530084, 41.160179826934097 ] } },
{ "type": "Feature", "properties": { "name": "HOSP. S.TA MARIA", "id": "metro/bus_HSM3", "W_candidate": 4.8375072984355461 }, "geometry": { "type": "Point", "coordinates": [ -8.61154716723056, 41.160389976607902 ] } },
{ "type": "Feature", "properties": { "name": "MARRACUENE", "id": "metro/bus_MRR2", "W_candidate": 3.0727428719836962 }, "geometry": { "type": "Point", "coordinates": [ -8.61975648036147, 41.162566765791098 ] } },
{ "type": "Feature", "properties": { "name": "AZEVEDO", "id": "metro/bus_AZV", "W_candidate": 3.1359398193719406 }, "geometry": { "type": "Point", "coordinates": [ -8.566557389745039, 41.151617198164701 ] } },
{ "type": "Feature", "properties": { "name": "BERNARDIM RIBEIRO", "id": "metro/bus_BRB3", "W_candidate": 1.1858510203130213 }, "geometry": { "type": "Point", "coordinates": [ -8.56603776443858, 41.164908647296201 ] } },
{ "type": "Feature", "properties": { "name": "IGREJA CAMPANHÃ", "id": "metro/bus_ICAM1", "W_candidate": 2.8933000168719252 }, "geometry": { "type": "Point", "coordinates": [ -8.57416825128125, 41.154861373471199 ] } },
{ "type": "Feature", "properties": { "name": "FERNÃO MAGALHÃES", "id": "metro/bus_FMAG", "W_candidate": 1.3797018662078002 }, "geometry": { "type": "Point", "coordinates": [ -8.5864500856501, 41.168684446494801 ] } },
{ "type": "Feature", "properties": { "name": "FORNOS", "id": "metro/bus_FRNS2", "W_candidate": 0.1699226773677581 }, "geometry": { "type": "Point", "coordinates": [ -8.591764889611451, 41.140088839686896 ] } },
{ "type": "Feature", "properties": { "name": "PTE.D.MARIA PIA", "id": "metro/bus_PTDM2", "W_candidate": 0.75361815450367375 }, "geometry": { "type": "Point", "coordinates": [ -8.59670931028004, 41.140533257636598 ] } },
{ "type": "Feature", "properties": { "name": "CAMPANHÃ", "id": "metro/bus_CMP4", "W_candidate": 8.4356163527861696 }, "geometry": { "type": "Point", "coordinates": [ -8.587322006764429, 41.147242297039597 ] } },
{ "type": "Feature", "properties": { "name": "SRA.CAMPANHÃ", "id": "metro/bus_SRC2", "W_candidate": 1.2853745914892607 }, "geometry": { "type": "Point", "coordinates": [ -8.57522368859421, 41.166517837100002 ] } },
{ "type": "Feature", "properties": { "name": "PR. DAS FLORES", "id": "metro/bus_PRF1", "W_candidate": 1.2099751126433635 }, "geometry": { "type": "Point", "coordinates": [ -8.5900555244638, 41.155499993779301 ] } },
{ "type": "Feature", "properties": { "name": "TV. PRESA", "id": "metro/bus_TPR", "W_candidate": 2.1081681735021065 }, "geometry": { "type": "Point", "coordinates": [ -8.57967860070231, 41.1680493367274 ] } },
{ "type": "Feature", "properties": { "name": "VIELA MEIRAL", "id": "metro/bus_VML", "W_candidate": 0.7285690747033402 }, "geometry": { "type": "Point", "coordinates": [ -8.57106273457916, 41.149569645509303 ] } },
{ "type": "Feature", "properties": { "name": "VILA NOVA FOZ CÔA", "id": "metro/bus_VNFZ1", "W_candidate": 1.2982173264598758 }, "geometry": { "type": "Point", "coordinates": [ -8.566916669867631, 41.161833347978103 ] } },
{ "type": "Feature", "properties": { "name": "CONTUMIL (METRO)", "id": "metro/bus_CNTM", "W_candidate": 1.4325726424648677 }, "geometry": { "type": "Point", "coordinates": [ -8.579589335499319, 41.165438450378701 ] } },
{ "type": "Feature", "properties": { "name": "CHAVES OLIVEIRA", "id": "metro/bus_CHOL2", "W_candidate": 1.1124879958882663 }, "geometry": { "type": "Point", "coordinates": [ -8.577692503350571, 41.160809333987103 ] } },
{ "type": "Feature", "properties": { "name": "EDP", "id": "metro/bus_EDP2", "W_candidate": 1.2570634989712615 }, "geometry": { "type": "Point", "coordinates": [ -8.579751637099591, 41.145520373295298 ] } },
{ "type": "Feature", "properties": { "name": "CORUJEIRA", "id": "metro/bus_CRJ1", "W_candidate": 3.3541941727188496 }, "geometry": { "type": "Point", "coordinates": [ -8.58092164342542, 41.159284525899999 ] } },
{ "type": "Feature", "properties": { "name": "C. SAÚDE CAMPANHÃ", "id": "metro/bus_CSC", "W_candidate": 1.3199723844737858 }, "geometry": { "type": "Point", "coordinates": [ -8.58998189887633, 41.157057304509898 ] } },
{ "type": "Feature", "properties": { "name": "R. AZEVEDO", "id": "metro/bus_RAZ", "W_candidate": 0.88915144293210691 }, "geometry": { "type": "Point", "coordinates": [ -8.572218387801909, 41.151888428105899 ] } },
{ "type": "Feature", "properties": { "name": "PESO DA RÉGUA", "id": "metro/bus_PREG", "W_candidate": 4.0292086287505215 }, "geometry": { "type": "Point", "coordinates": [ -8.5695833540693, 41.161305501316399 ] } },
{ "type": "Feature", "properties": { "name": "MARQUÊS", "id": "metro/bus_MPL3", "W_candidate": 11.354636353137083 }, "geometry": { "type": "Point", "coordinates": [ -8.604059009228839, 41.160959998298203 ] } },
{ "type": "Feature", "properties": { "name": "MONTE TADEU", "id": "metro/bus_MTT2", "W_candidate": 2.7295386062619316 }, "geometry": { "type": "Point", "coordinates": [ -8.59925562544541, 41.156205797170301 ] } },
{ "type": "Feature", "properties": { "name": "CAPELA S.RA SAÚDE", "id": "metro/bus_CSS3", "W_candidate": 5.7952982848901486 }, "geometry": { "type": "Point", "coordinates": [ -8.589031469830919, 41.147495119645399 ] } },
{ "type": "Feature", "properties": { "name": "MARQUÊS", "id": "metro/bus_MPL1", "W_candidate": 11.354636353137083 }, "geometry": { "type": "Point", "coordinates": [ -8.603984660002761, 41.161109053361798 ] } },
{ "type": "Feature", "properties": { "name": "STO. ISIDRO", "id": "metro/bus_SI2", "W_candidate": 3.0151696456017936 }, "geometry": { "type": "Point", "coordinates": [ -8.60142721259772, 41.158355198284703 ] } },
{ "type": "Feature", "properties": { "name": "D. JOÃO IV", "id": "metro/bus_DJOA4", "W_candidate": 11.866948096059749 }, "geometry": { "type": "Point", "coordinates": [ -8.60169381222657, 41.148971662483603 ] } },
{ "type": "Feature", "properties": { "name": "AV.ALIADOS", "id": "metro/bus_AAL", "W_candidate": 34.838398328823729 }, "geometry": { "type": "Point", "coordinates": [ -8.611037660384291, 41.147931992258499 ] } },
{ "type": "Feature", "properties": { "name": "FREIXO", "id": "metro/bus_FRX4", "W_candidate": 1.1692588896839506 }, "geometry": { "type": "Point", "coordinates": [ -8.579619089362691, 41.146522975417803 ] } },
{ "type": "Feature", "properties": { "name": "BESSA", "id": "metro/bus_BSS3", "W_candidate": 7.4779544363197523 }, "geometry": { "type": "Point", "coordinates": [ -8.642977349658461, 41.160315594123098 ] } },
{ "type": "Feature", "properties": { "name": "FOCO", "id": "metro/bus_FOCO2", "W_candidate": 3.6196730751270541 }, "geometry": { "type": "Point", "coordinates": [ -8.64747220455906, 41.1611110785907 ] } },
{ "type": "Feature", "properties": { "name": "CANTAREIRA", "id": "metro/bus_CNT3", "W_candidate": 7.2495738485844221 }, "geometry": { "type": "Point", "coordinates": [ -8.66522216437558, 41.1481111382884 ] } },
{ "type": "Feature", "properties": { "name": "FÁBRICA DO COBRE", "id": "metro/bus_FBC1", "W_candidate": 0.76769289482460967 }, "geometry": { "type": "Point", "coordinates": [ -8.57073806146323, 41.169281310539198 ] } },
{ "type": "Feature", "properties": { "name": "CERCO DO PORTO", "id": "metro/bus_CPTO", "W_candidate": 3.9312191361201858 }, "geometry": { "type": "Point", "coordinates": [ -8.57030558815635, 41.159888905301102 ] } },
{ "type": "Feature", "properties": { "name": "SALGUEIROS", "id": "metro/bus_SAL1", "W_candidate": 3.3992597163616707 }, "geometry": { "type": "Point", "coordinates": [ -8.598969320678, 41.169662017377497 ] } },
{ "type": "Feature", "properties": { "name": "ALFÂNDEGA", "id": "metro/bus_ALFG2", "W_candidate": 4.6040298556120662 }, "geometry": { "type": "Point", "coordinates": [ -8.62273725297333, 41.143949847912999 ] } },
{ "type": "Feature", "properties": { "name": "BR. RAMALDE", "id": "metro/bus_BRRM2", "W_candidate": 2.5641384949508277 }, "geometry": { "type": "Point", "coordinates": [ -8.648458464274819, 41.170257401197603 ] } },
{ "type": "Feature", "properties": { "name": "S. ROQUE", "id": "metro/bus_SR4", "W_candidate": 1.9744922594444481 }, "geometry": { "type": "Point", "coordinates": [ -8.566890675766739, 41.166425168024197 ] } },
{ "type": "Feature", "properties": { "name": "GOMES COSTA 1", "id": "metro/bus_GC12", "W_candidate": 4.5910284642445944 }, "geometry": { "type": "Point", "coordinates": [ -8.65601531286195, 41.161894161764799 ] } },
{ "type": "Feature", "properties": { "name": "POUSADA JUVENTUDE", "id": "metro/bus_PJUV1", "W_candidate": 5.3051050577644636 }, "geometry": { "type": "Point", "coordinates": [ -8.659956381449771, 41.148658904812599 ] } },
{ "type": "Feature", "properties": { "name": "CORDOARIA VELHA", "id": "metro/bus_CRVH2", "W_candidate": 6.6175010924130095 }, "geometry": { "type": "Point", "coordinates": [ -8.650436515054951, 41.148045919022799 ] } },
{ "type": "Feature", "properties": { "name": "TORRES", "id": "metro/bus_TRR3", "W_candidate": 6.9404362432891613 }, "geometry": { "type": "Point", "coordinates": [ -8.66461931786799, 41.150749025645602 ] } },
{ "type": "Feature", "properties": { "name": "ALEIXO", "id": "metro/bus_ALX2", "W_candidate": 1.8729152617045601 }, "geometry": { "type": "Point", "coordinates": [ -8.649383891815029, 41.151688916367803 ] } },
{ "type": "Feature", "properties": { "name": "D.JOÃO III", "id": "metro/bus_DJ31", "W_candidate": 6.1359380871589595 }, "geometry": { "type": "Point", "coordinates": [ -8.661251613223749, 41.157265084238396 ] } },
{ "type": "Feature", "properties": { "name": "ALEIXO", "id": "metro/bus_ALX1", "W_candidate": 5.5340096380640889 }, "geometry": { "type": "Point", "coordinates": [ -8.64949303570612, 41.152570303542902 ] } },
{ "type": "Feature", "properties": { "name": "FLUVIAL", "id": "metro/bus_FLU1", "W_candidate": 5.3988593167843488 }, "geometry": { "type": "Point", "coordinates": [ -8.65289888621767, 41.148709408605797 ] } },
{ "type": "Feature", "properties": { "name": "MIRAGAIA", "id": "metro/bus_MRG1", "W_candidate": 4.130850932917399 }, "geometry": { "type": "Point", "coordinates": [ -8.618502330047621, 41.141492716572898 ] } },
{ "type": "Feature", "properties": { "name": "MIRAGAIA", "id": "metro/bus_MRG2", "W_candidate": 4.130850932917399 }, "geometry": { "type": "Point", "coordinates": [ -8.619070500066259, 41.141672021729697 ] } },
{ "type": "Feature", "properties": { "name": "ALFÂNDEGA", "id": "metro/bus_ALFG1", "W_candidate": 4.6040298556120662 }, "geometry": { "type": "Point", "coordinates": [ -8.621972097129801, 41.143842352856701 ] } },
{ "type": "Feature", "properties": { "name": "VIRIATO", "id": "metro/bus_VTO4", "W_candidate": 6.6917638174733955 }, "geometry": { "type": "Point", "coordinates": [ -8.62069442125385, 41.145999984093599 ] } },
{ "type": "Feature", "properties": { "name": "HOSP. STO. ANTÓNIO", "id": "metro/bus_HSA1", "W_candidate": 6.2635853700217599 }, "geometry": { "type": "Point", "coordinates": [ -8.620236651577761, 41.146658337369303 ] } },
{ "type": "Feature", "properties": { "name": "PALÁCIO", "id": "metro/bus_PAL5", "W_candidate": 7.1780853971678855 }, "geometry": { "type": "Point", "coordinates": [ -8.62497720951777, 41.1484202702066 ] } },
{ "type": "Feature", "properties": { "name": "PALÁCIO", "id": "metro/bus_PAL4", "W_candidate": 7.1780853971678855 }, "geometry": { "type": "Point", "coordinates": [ -8.62474143733427, 41.148336819052098 ] } },
{ "type": "Feature", "properties": { "name": "JUNTA MASSARELOS", "id": "metro/bus_JM2", "W_candidate": 5.691862870117717 }, "geometry": { "type": "Point", "coordinates": [ -8.630305561211671, 41.152527778508798 ] } },
{ "type": "Feature", "properties": { "name": "PR. DA GALIZA", "id": "metro/bus_PRG3", "W_candidate": 5.1213869457274628 }, "geometry": { "type": "Point", "coordinates": [ -8.626904033529449, 41.152588727363899 ] } },
{ "type": "Feature", "properties": { "name": "PALÁCIO", "id": "metro/bus_PAL2", "W_candidate": 7.1780853971678855 }, "geometry": { "type": "Point", "coordinates": [ -8.625447220665251, 41.149144992326001 ] } },
{ "type": "Feature", "properties": { "name": "PALÁCIO", "id": "metro/bus_PAL3", "W_candidate": 6.82550118383468 }, "geometry": { "type": "Point", "coordinates": [ -8.62553157155577, 41.149511825115098 ] } },
{ "type": "Feature", "properties": { "name": "BICALHO", "id": "metro/bus_BIC2", "W_candidate": 2.0614098626355934 }, "geometry": { "type": "Point", "coordinates": [ -8.63657419998632, 41.148291350621498 ] } },
{ "type": "Feature", "properties": { "name": "GÓLGOTA", "id": "metro/bus_GGT1", "W_candidate": 5.0890223485604107 }, "geometry": { "type": "Point", "coordinates": [ -8.633694455883759, 41.152638855755697 ] } },
{ "type": "Feature", "properties": { "name": "GÓLGOTA", "id": "metro/bus_GGT2", "W_candidate": 3.7899101863485685 }, "geometry": { "type": "Point", "coordinates": [ -8.634111118051999, 41.152444438763702 ] } },
{ "type": "Feature", "properties": { "name": "PR. DA GALIZA", "id": "metro/bus_PRG6", "W_candidate": 5.1213869457274628 }, "geometry": { "type": "Point", "coordinates": [ -8.62686279145699, 41.152379735459697 ] } },
{ "type": "Feature", "properties": { "name": "PR. DA GALIZA", "id": "metro/bus_PRG1", "W_candidate": 5.7263911779752137 }, "geometry": { "type": "Point", "coordinates": [ -8.626333278665779, 41.153444422794202 ] } },
{ "type": "Feature", "properties": { "name": "JUNTA MASSARELOS", "id": "metro/bus_JM1", "W_candidate": 4.2338550056259274 }, "geometry": { "type": "Point", "coordinates": [ -8.63122138218141, 41.152694173159901 ] } },
{ "type": "Feature", "properties": { "name": "MUSEU C. ELÉCTRICO", "id": "metro/bus_MCE2", "W_candidate": 5.7931632449412858 }, "geometry": { "type": "Point", "coordinates": [ -8.63218781651207, 41.146526376899601 ] } },
{ "type": "Feature", "properties": { "name": "PONTE DA ARRÁBIDA", "id": "metro/bus_PARR2", "W_candidate": 2.7936572729546119 }, "geometry": { "type": "Point", "coordinates": [ -8.640930086486261, 41.148439304541803 ] } },
{ "type": "Feature", "properties": { "name": "BOAVISTA CEMITÉRIO", "id": "metro/bus_BVCM3", "W_candidate": 28.495692472055506 }, "geometry": { "type": "Point", "coordinates": [ -8.629997676638579, 41.157163694175097 ] } },
{ "type": "Feature", "properties": { "name": "BICALHO", "id": "metro/bus_BIC1", "W_candidate": 2.4673770382151208 }, "geometry": { "type": "Point", "coordinates": [ -8.63694472753747, 41.148516274223503 ] } },
{ "type": "Feature", "properties": { "name": "CARVALHOSA", "id": "metro/bus_CVA2", "W_candidate": 5.0609263103695525 }, "geometry": { "type": "Point", "coordinates": [ -8.62072319911182, 41.1561139084533 ] } },
{ "type": "Feature", "properties": { "name": "BOAVISTA - B.SUCESSO", "id": "metro/bus_BS1", "W_candidate": 17.304636497934638 }, "geometry": { "type": "Point", "coordinates": [ -8.62792954663119, 41.156403474422 ] } },
{ "type": "Feature", "properties": { "name": "BOAVISTA - B.SUCESSO", "id": "metro/bus_BS2", "W_candidate": 14.879485395834696 }, "geometry": { "type": "Point", "coordinates": [ -8.62826100753222, 41.155300915534198 ] } },
{ "type": "Feature", "properties": { "name": "MOREIRA", "id": "metro/bus_MOR2", "W_candidate": 5.0122102829743467 }, "geometry": { "type": "Point", "coordinates": [ -8.60229543690604, 41.153012396347201 ] } },
{ "type": "Feature", "properties": { "name": "MOREIRA", "id": "metro/bus_MOR3", "W_candidate": 2.3572137268455133 }, "geometry": { "type": "Point", "coordinates": [ -8.599770425175731, 41.153727533759202 ] } },
{ "type": "Feature", "properties": { "name": "MARQUÊS", "id": "metro/bus_MPL2", "W_candidate": 11.348519363143769 }, "geometry": { "type": "Point", "coordinates": [ -8.60413734687805, 41.160802282744797 ] } },
{ "type": "Feature", "properties": { "name": "COMBATENTES", "id": "metro/bus_COMB1", "W_candidate": 3.5622158883449848 }, "geometry": { "type": "Point", "coordinates": [ -8.60036700377321, 41.164632691007199 ] } },
{ "type": "Feature", "properties": { "name": "D.AMÉLIA", "id": "metro/bus_DAM", "W_candidate": 2.0577959660997571 }, "geometry": { "type": "Point", "coordinates": [ -8.59898117319338, 41.157738445735397 ] } },
{ "type": "Feature", "properties": { "name": "MERCADO DA FOZ", "id": "metro/bus_MFZ2", "W_candidate": 6.6546968500906081 }, "geometry": { "type": "Point", "coordinates": [ -8.67391441127182, 41.154020583120499 ] } },
{ "type": "Feature", "properties": { "name": "PR. DO IMPÉRIO", "id": "metro/bus_PRI1", "W_candidate": 6.2266198226692131 }, "geometry": { "type": "Point", "coordinates": [ -8.671348660186959, 41.155866253417003 ] } },
{ "type": "Feature", "properties": { "name": "PR. DO IMPÉRIO", "id": "metro/bus_PRI4", "W_candidate": 6.2266198226692131 }, "geometry": { "type": "Point", "coordinates": [ -8.67129311924875, 41.155616285307403 ] } },
{ "type": "Feature", "properties": { "name": "D. LEONOR", "id": "metro/bus_DL1", "W_candidate": 3.3777531238343199 }, "geometry": { "type": "Point", "coordinates": [ -8.659707813858279, 41.1470002872842 ] } },
{ "type": "Feature", "properties": { "name": "CANTAREIRA", "id": "metro/bus_CNT1", "W_candidate": 7.2495738485844221 }, "geometry": { "type": "Point", "coordinates": [ -8.66455238837051, 41.148057780428701 ] } },
{ "type": "Feature", "properties": { "name": "MERCADO DA FOZ", "id": "metro/bus_MFZ1", "W_candidate": 6.6546968500906081 }, "geometry": { "type": "Point", "coordinates": [ -8.673342805765611, 41.155047505215002 ] } },
{ "type": "Feature", "properties": { "name": "IGREJA DA FOZ", "id": "metro/bus_IFOZ1", "W_candidate": 5.9711039230970062 }, "geometry": { "type": "Point", "coordinates": [ -8.669416754792969, 41.148398237601299 ] } },
{ "type": "Feature", "properties": { "name": "SENHORA DA LUZ", "id": "metro/bus_SRLZ1", "W_candidate": 3.6639972098013578 }, "geometry": { "type": "Point", "coordinates": [ -8.67587643762635, 41.150032893209499 ] } },
{ "type": "Feature", "properties": { "name": "D. LEONOR", "id": "metro/bus_DL2", "W_candidate": 3.3777531238343199 }, "geometry": { "type": "Point", "coordinates": [ -8.660203997931291, 41.147244099481497 ] } },
{ "type": "Feature", "properties": { "name": "CANTAREIRA", "id": "metro/bus_CNT2", "W_candidate": 7.2495738485844221 }, "geometry": { "type": "Point", "coordinates": [ -8.665307657273051, 41.148136044441401 ] } },
{ "type": "Feature", "properties": { "name": "PRAIA DOS INGLESES", "id": "metro/bus_PING1", "W_candidate": 6.4602435697744518 }, "geometry": { "type": "Point", "coordinates": [ -8.67690110011498, 41.1516235147649 ] } },
{ "type": "Feature", "properties": { "name": "PRAIA DA LUZ", "id": "metro/bus_PLUZ1", "W_candidate": 7.3999704530082129 }, "geometry": { "type": "Point", "coordinates": [ -8.67878721853992, 41.153626396881897 ] } },
{ "type": "Feature", "properties": { "name": "PRADO REPOUSO", "id": "metro/bus_PRDR2", "W_candidate": 3.4786152318252972 }, "geometry": { "type": "Point", "coordinates": [ -8.5966446581527, 41.145952658360301 ] } },
{ "type": "Feature", "properties": { "name": "S. CRISPIM", "id": "metro/bus_SCR4", "W_candidate": 2.8768425687302921 }, "geometry": { "type": "Point", "coordinates": [ -8.59285562788599, 41.1606628532816 ] } },
{ "type": "Feature", "properties": { "name": "MARQUÊS", "id": "metro/bus_MPL4", "W_candidate": 12.124228497461475 }, "geometry": { "type": "Point", "coordinates": [ -8.604808550357401, 41.161357793076 ] } },
{ "type": "Feature", "properties": { "name": "BARROS LIMA", "id": "metro/bus_BL1", "W_candidate": 4.678355313364662 }, "geometry": { "type": "Point", "coordinates": [ -8.595320617149421, 41.154422191869102 ] } },
{ "type": "Feature", "properties": { "name": "DOZE CASAS", "id": "metro/bus_DCAS1", "W_candidate": 8.5483144794100081 }, "geometry": { "type": "Point", "coordinates": [ -8.60457772791621, 41.159080663008503 ] } },
{ "type": "Feature", "properties": { "name": "DIOGO CÃO", "id": "metro/bus_DC2", "W_candidate": 3.8174418407387738 }, "geometry": { "type": "Point", "coordinates": [ -8.59223330715016, 41.165920135731497 ] } },
{ "type": "Feature", "properties": { "name": "PINTO BESSA", "id": "metro/bus_PBSS2", "W_candidate": 7.7203174467294033 }, "geometry": { "type": "Point", "coordinates": [ -8.58833717126174, 41.148928922954298 ] } },
{ "type": "Feature", "properties": { "name": "HEROISMO", "id": "metro/bus_HER2", "W_candidate": 3.0639026187920226 }, "geometry": { "type": "Point", "coordinates": [ -8.59296448280582, 41.146509684336401 ] } },
{ "type": "Feature", "properties": { "name": "S. LÁZARO", "id": "metro/bus_SLZ3", "W_candidate": 8.190005525419215 }, "geometry": { "type": "Point", "coordinates": [ -8.601333721403099, 41.145800832766703 ] } },
{ "type": "Feature", "properties": { "name": "PR. DAS FLORES", "id": "metro/bus_PRF2", "W_candidate": 1.2099751126433635 }, "geometry": { "type": "Point", "coordinates": [ -8.59163890897065, 41.155749946844999 ] } },
{ "type": "Feature", "properties": { "name": "ESCOLA NORMAL", "id": "metro/bus_ESCN1", "W_candidate": 4.0691558122360645 }, "geometry": { "type": "Point", "coordinates": [ -8.60277780513672, 41.155361079935297 ] } },
{ "type": "Feature", "properties": { "name": "MONTE CAMPANHÃ", "id": "metro/bus_MCAM2", "W_candidate": 2.8023094891322251 }, "geometry": { "type": "Point", "coordinates": [ -8.574635367063991, 41.157002595511997 ] } },
{ "type": "Feature", "properties": { "name": "CAMPO LINDO", "id": "metro/bus_CPL1", "W_candidate": 6.3977878980970484 }, "geometry": { "type": "Point", "coordinates": [ -8.61076995788132, 41.167259942865797 ] } },
{ "type": "Feature", "properties": { "name": "MANUEL LARANJEIRA", "id": "metro/bus_MLAR1", "W_candidate": 1.6573838196712316 }, "geometry": { "type": "Point", "coordinates": [ -8.598723683283749, 41.1731640426379 ] } },
{ "type": "Feature", "properties": { "name": "NOEDA", "id": "metro/bus_NDA2", "W_candidate": 0.51009214668371339 }, "geometry": { "type": "Point", "coordinates": [ -8.58363665180338, 41.145851689198501 ] } },
{ "type": "Feature", "properties": { "name": "JOÃO R.CABRILHO", "id": "metro/bus_JRC3", "W_candidate": 6.3416625388455614 }, "geometry": { "type": "Point", "coordinates": [ -8.66072226033176, 41.155305578609102 ] } },
{ "type": "Feature", "properties": { "name": "SALGUEIRO MAIA", "id": "metro/bus_SMAI2", "W_candidate": 5.7931632449412858 }, "geometry": { "type": "Point", "coordinates": [ -8.63169439349687, 41.148388891706901 ] } },
{ "type": "Feature", "properties": { "name": "HOSP. PRELADA", "id": "metro/bus_HPRL1", "W_candidate": 5.9767091977683675 }, "geometry": { "type": "Point", "coordinates": [ -8.625563912567319, 41.1693205099808 ] } },
{ "type": "Feature", "properties": { "name": "QUARTEL MILITAR", "id": "metro/bus_QTL1", "W_candidate": 0.53870483649487433 }, "geometry": { "type": "Point", "coordinates": [ -8.638832689932091, 41.182499093691902 ] } },
{ "type": "Feature", "properties": { "name": "BOLHÃO", "id": "metro/bus_BLRB4", "W_candidate": 32.221281347215374 }, "geometry": { "type": "Point", "coordinates": [ -8.606997353903891, 41.150975873373703 ] } },
{ "type": "Feature", "properties": { "name": "BOAVISTA - B. SUCESSO", "id": "metro/bus_BS6", "W_candidate": 17.304636497934638 }, "geometry": { "type": "Point", "coordinates": [ -8.62835333783781, 41.155822134534297 ] } },
{ "type": "Feature", "properties": { "name": "CAMPO 24 DE AGOSTO", "id": "metro/bus_C24A2", "W_candidate": 11.082321103694149 }, "geometry": { "type": "Point", "coordinates": [ -8.597774078217499, 41.148620836903604 ] } },
{ "type": "Feature", "properties": { "name": "CAPUCHINHOS", "id": "metro/bus_CPU1", "W_candidate": 0.36207002007926026 }, "geometry": { "type": "Point", "coordinates": [ -8.61808082455031, 41.182237393896997 ] } },
{ "type": "Feature", "properties": { "name": "DUQUE LOULÉ", "id": "metro/bus_DQL1", "W_candidate": 9.1053355804189131 }, "geometry": { "type": "Point", "coordinates": [ -8.603616113718839, 41.145532186128897 ] } },
{ "type": "Feature", "properties": { "name": "JULGADO DE PAZ", "id": "metro/bus_JPAZ1", "W_candidate": 2.1123471029654008 }, "geometry": { "type": "Point", "coordinates": [ -8.644666643039949, 41.175777729780002 ] } },
{ "type": "Feature", "properties": { "name": "PÓLO UNIVERSITÁRIO (METRO)", "id": "metro/bus_PUNV", "W_candidate": 2.4949338328146364 }, "geometry": { "type": "Point", "coordinates": [ -8.603512399756159, 41.176385610031701 ] } },
{ "type": "Feature", "properties": { "name": "FACULDADE DE ENGENHARIA", "id": "metro/bus_FEUP1", "W_candidate": 2.1893717586071104 }, "geometry": { "type": "Point", "coordinates": [ -8.598491366420269, 41.1791344315331 ] } },
{ "type": "Feature", "properties": { "name": "FACULDADE DE ENGENHARIA", "id": "metro/bus_FEUP2", "W_candidate": 2.1893717586071104 }, "geometry": { "type": "Point", "coordinates": [ -8.598749977174799, 41.179083320108496 ] } },
{ "type": "Feature", "properties": { "name": "S.JOÃO BOSCO", "id": "metro/bus_SJBC1", "W_candidate": 4.7854586724260786 }, "geometry": { "type": "Point", "coordinates": [ -8.647827460831699, 41.166089736169603 ] } },
{ "type": "Feature", "properties": { "name": "S.JOÃO BOSCO", "id": "metro/bus_SJBC2", "W_candidate": 4.5565905420996407 }, "geometry": { "type": "Point", "coordinates": [ -8.648005389889221, 41.1660026784484 ] } },
{ "type": "Feature", "properties": { "name": "AZEVEDO", "id": "metro/bus_AZV2", "W_candidate": 2.9485329011522401 }, "geometry": { "type": "Point", "coordinates": [ -8.56708333003631, 41.151777739717197 ] } },
{ "type": "Feature", "properties": { "name": "MOLHE", "id": "metro/bus_MLH5", "W_candidate": 5.3858437586626815 }, "geometry": { "type": "Point", "coordinates": [ -8.68162790785629, 41.160000400026497 ] } },
{ "type": "Feature", "properties": { "name": "FOZ", "id": "metro/bus_RFAR1", "W_candidate": 5.8973327078765108 }, "geometry": { "type": "Point", "coordinates": [ -8.677293400125871, 41.152731792982003 ] } },
{ "type": "Feature", "properties": { "name": "PASSEIO ALEGRE", "id": "metro/bus_PASS3", "W_candidate": 4.7354332788134021 }, "geometry": { "type": "Point", "coordinates": [ -8.672093949877731, 41.149143963529802 ] } },
{ "type": "Feature", "properties": { "name": "PASSEIO ALEGRE", "id": "metro/bus_PASS4", "W_candidate": 4.7354332788134021 }, "geometry": { "type": "Point", "coordinates": [ -8.671639670852979, 41.148991219572302 ] } },
{ "type": "Feature", "properties": { "name": "PÊRO VAZ CAMINHA", "id": "metro/bus_PVC1", "W_candidate": 1.5886753591377905 }, "geometry": { "type": "Point", "coordinates": [ -8.6679042193105, 41.157227387545397 ] } },
{ "type": "Feature", "properties": { "name": "STA. LUZIA (NORTE)", "id": "metro/bus_STLN1", "W_candidate": 2.3082759886034858 }, "geometry": { "type": "Point", "coordinates": [ -8.624348689511431, 41.179644382616303 ] } },
{ "type": "Feature", "properties": { "name": "ALBERTO SAMPAIO", "id": "metro/bus_ASP2", "W_candidate": 4.9696067109815001 }, "geometry": { "type": "Point", "coordinates": [ -8.6273765089751, 41.178311017931101 ] } },
{ "type": "Feature", "properties": { "name": "MARIA LAMAS", "id": "metro/bus_MLAM3", "W_candidate": 2.2467823730028305 }, "geometry": { "type": "Point", "coordinates": [ -8.6340152589153, 41.1696998849824 ] } },
{ "type": "Feature", "properties": { "name": "SERRALVES (MUSEU)", "id": "metro/bus_SRVM4", "W_candidate": 2.9635497667285726 }, "geometry": { "type": "Point", "coordinates": [ -8.660626475280001, 41.159783022667199 ] } },
{ "type": "Feature", "properties": { "name": "CARLOS AMARANTE", "id": "metro/bus_1CAM1", "W_candidate": 3.501959609699675 }, "geometry": { "type": "Point", "coordinates": [ -8.6141927778552, 41.1756517501518 ] } },
{ "type": "Feature", "properties": { "name": "MERCADO DO BOLHÃO", "id": "metro/bus_MCBL3", "W_candidate": 31.443671276399677 }, "geometry": { "type": "Point", "coordinates": [ -8.607709100367931, 41.149257081303602 ] } },
{ "type": "Feature", "properties": { "name": "IGREJA DAS ANTAS", "id": "metro/bus_IANT3", "W_candidate": 7.0289421045265179 }, "geometry": { "type": "Point", "coordinates": [ -8.58888262081722, 41.163628118280698 ] } },
{ "type": "Feature", "properties": { "name": "SANTOS POUSADA", "id": "metro/bus_STP1", "W_candidate": 3.5308595452253808 }, "geometry": { "type": "Point", "coordinates": [ -8.60027774459115, 41.1532499566326 ] } },
{ "type": "Feature", "properties": { "name": "GONÇALO CRISTÓVÃO", "id": "metro/bus_GCRT3", "W_candidate": 6.1222598217076722 }, "geometry": { "type": "Point", "coordinates": [ -8.609957286059799, 41.155024553202402 ] } },
{ "type": "Feature", "properties": { "name": "PARAÍSO (METRO)", "id": "metro/bus_PRSM3", "W_candidate": 4.9166152235136371 }, "geometry": { "type": "Point", "coordinates": [ -8.609893058468209, 41.157663069043601 ] } },
{ "type": "Feature", "properties": { "name": "FACULDADE DE CIÊNCIAS", "id": "metro/bus_FCUP1", "W_candidate": 4.5176109804523472 }, "geometry": { "type": "Point", "coordinates": [ -8.641308985487701, 41.153837668177303 ] } },
{ "type": "Feature", "properties": { "name": "FACULDADE DE CIÊNCIAS", "id": "metro/bus_FCUP2", "W_candidate": 4.5176109804523472 }, "geometry": { "type": "Point", "coordinates": [ -8.64103456565671, 41.153614495170302 ] } },
{ "type": "Feature", "properties": { "name": "R.RESTAURAÇÃO", "id": "metro/bus_HSA6", "W_candidate": 6.6917638174733955 }, "geometry": { "type": "Point", "coordinates": [ -8.62062618349244, 41.145922026433396 ] } },
{ "type": "Feature", "properties": { "name": "ANTAS (L. CIDADÃO)", "id": "metro/bus_ANT2", "W_candidate": 5.8395923235359763 }, "geometry": { "type": "Point", "coordinates": [ -8.58917808709332, 41.164927160155401 ] } },
{ "type": "Feature", "properties": { "name": "CARTES", "id": "metro/bus_CRT", "W_candidate": 1.7449336269039586 }, "geometry": { "type": "Point", "coordinates": [ -8.57530556423197, 41.162083285373697 ] } },
{ "type": "Feature", "properties": { "name": "HEROISMO", "id": "metro/bus_HER1", "W_candidate": 3.2557375274630047 }, "geometry": { "type": "Point", "coordinates": [ -8.592237197453469, 41.146500437105303 ] } },
{ "type": "Feature", "properties": { "name": "RIBEIRA (INFANTE)", "id": "metro/bus_RBRI2", "W_candidate": 5.6925472668882611 }, "geometry": { "type": "Point", "coordinates": [ -8.616681699585641, 41.140533151963098 ] } },
{ "type": "Feature", "properties": { "name": "BONFIM", "id": "metro/bus_BFM2", "W_candidate": 3.9364233417501096 }, "geometry": { "type": "Point", "coordinates": [ -8.59474998856181, 41.1504444174737 ] } },
{ "type": "Feature", "properties": { "name": "BONFIM", "id": "metro/bus_BFM8", "W_candidate": 3.6338578822803327 }, "geometry": { "type": "Point", "coordinates": [ -8.59426156525101, 41.151477818585597 ] } },
{ "type": "Feature", "properties": { "name": "BARROS LIMA", "id": "metro/bus_BL2", "W_candidate": 4.678355313364662 }, "geometry": { "type": "Point", "coordinates": [ -8.59543679464357, 41.155101906905898 ] } },
{ "type": "Feature", "properties": { "name": "ESC. AURÉLIA SOUSA", "id": "metro/bus_AUS", "W_candidate": 5.6171310642789614 }, "geometry": { "type": "Point", "coordinates": [ -8.60058364507516, 41.1604215097422 ] } },
{ "type": "Feature", "properties": { "name": "FONTINHA", "id": "metro/bus_FTNH1", "W_candidate": 3.5200800994643653 }, "geometry": { "type": "Point", "coordinates": [ -8.604556383170809, 41.156109343849202 ] } },
{ "type": "Feature", "properties": { "name": "BR. FONTE DA MOURA", "id": "metro/bus_BFTM1", "W_candidate": 6.2042907238938625 }, "geometry": { "type": "Point", "coordinates": [ -8.65798214411239, 41.171021707212603 ] } },
{ "type": "Feature", "properties": { "name": "PARQUE DA CIDADE", "id": "metro/bus_PQC2", "W_candidate": 0.22811163348793084 }, "geometry": { "type": "Point", "coordinates": [ -8.678190687624831, 41.171442047587703 ] } },
{ "type": "Feature", "properties": { "name": "REAL", "id": "metro/bus_REAL2", "W_candidate": 1.0254519380959022 }, "geometry": { "type": "Point", "coordinates": [ -8.66963642060265, 41.176239863231501 ] } },
{ "type": "Feature", "properties": { "name": "VILARINHA", "id": "metro/bus_VLRA3", "W_candidate": 1.0215979760866587 }, "geometry": { "type": "Point", "coordinates": [ -8.6729166977641, 41.171944434303697 ] } },
{ "type": "Feature", "properties": { "name": "ELEVADOR GUINDAIS", "id": "metro/bus_ELVG1", "W_candidate": 3.1727975222346498 }, "geometry": { "type": "Point", "coordinates": [ -8.61054713593278, 41.141119500618501 ] } },
{ "type": "Feature", "properties": { "name": "ELEVADOR GUINDAIS", "id": "metro/bus_ELVG2", "W_candidate": 3.1727975222346498 }, "geometry": { "type": "Point", "coordinates": [ -8.610667354530429, 41.141272073947697 ] } },
{ "type": "Feature", "properties": { "name": "PR. DA LIBERDADE", "id": "metro/bus_PRL8", "W_candidate": 32.176906473788897 }, "geometry": { "type": "Point", "coordinates": [ -8.61198809525164, 41.145951055907297 ] } },
{ "type": "Feature", "properties": { "name": "PR. DA REPÚBLICA", "id": "metro/bus_PRR3", "W_candidate": 6.0278374488038828 }, "geometry": { "type": "Point", "coordinates": [ -8.61162265029952, 41.155267858398801 ] } },
{ "type": "Feature", "properties": { "name": "BATALHA", "id": "metro/bus_BTLH1", "W_candidate": 9.0259799913498373 }, "geometry": { "type": "Point", "coordinates": [ -8.607166611499069, 41.145083316353997 ] } },
{ "type": "Feature", "properties": { "name": "MARQUÊS", "id": "metro/bus_MPL11", "W_candidate": 12.908413124138162 }, "geometry": { "type": "Point", "coordinates": [ -8.60600321642519, 41.160711869172999 ] } },
{ "type": "Feature", "properties": { "name": "PR. D. JOÃO I", "id": "metro/bus_PRDJ1", "W_candidate": 28.812377046457328 }, "geometry": { "type": "Point", "coordinates": [ -8.608387290426, 41.148041942371599 ] } },
{ "type": "Feature", "properties": { "name": "GONÇALO CRISTÓVÃO", "id": "metro/bus_GCRT2", "W_candidate": 16.629464930101797 }, "geometry": { "type": "Point", "coordinates": [ -8.610107771893389, 41.154420642738003 ] } },
{ "type": "Feature", "properties": { "name": "BATALHA", "id": "metro/bus_BTLH5", "W_candidate": 7.3188109709489693 }, "geometry": { "type": "Point", "coordinates": [ -8.604083291601331, 41.143722212117503 ] } },
{ "type": "Feature", "properties": { "name": "MARQUÊS", "id": "metro/bus_MPL9", "W_candidate": 12.989668232636877 }, "geometry": { "type": "Point", "coordinates": [ -8.60473346172423, 41.161486682111502 ] } },
{ "type": "Feature", "properties": { "name": "BOLHÃO", "id": "metro/bus_BLRB2", "W_candidate": 32.988532702058897 }, "geometry": { "type": "Point", "coordinates": [ -8.607191910859971, 41.151671821389897 ] } },
{ "type": "Feature", "properties": { "name": "FERR. DOS SANTOS", "id": "metro/bus_FSTO1", "W_candidate": 2.3554590897167671 }, "geometry": { "type": "Point", "coordinates": [ -8.577472229029491, 41.1597222011059 ] } },
{ "type": "Feature", "properties": { "name": "EDIF. TRANSPARENTE", "id": "metro/bus_ETRP2", "W_candidate": 4.2744298285277962 }, "geometry": { "type": "Point", "coordinates": [ -8.68776250176329, 41.171792438962399 ] } },
{ "type": "Feature", "properties": { "name": "HOSP. S. JOÃO (METRO)", "id": "metro/bus_HSJ2", "W_candidate": 15.05307102189888 }, "geometry": { "type": "Point", "coordinates": [ -8.602424695406979, 41.183328086617898 ] } },
{ "type": "Feature", "properties": { "name": "CASA DA MÚSICA (METRO)", "id": "metro/bus_CMS2", "W_candidate": 24.977646380341561 }, "geometry": { "type": "Point", "coordinates": [ -8.6299658086002, 41.161216557449997 ] } },
{ "type": "Feature", "properties": { "name": "CASA DA MÚSICA (METRO)", "id": "metro/bus_CMS4", "W_candidate": 24.604224079757554 }, "geometry": { "type": "Point", "coordinates": [ -8.62969591298862, 41.1611021995597 ] } },
{ "type": "Feature", "properties": { "name": "CASA DA MÚSICA (METRO)", "id": "metro/bus_CMS5", "W_candidate": 24.977646380341561 }, "geometry": { "type": "Point", "coordinates": [ -8.629855833298221, 41.161278982172199 ] } },
{ "type": "Feature", "properties": { "name": "ESC. SUP. EDUCAÇÃO", "id": "metro/bus_ESED2", "W_candidate": 8.0438432254819716 }, "geometry": { "type": "Point", "coordinates": [ -8.59766665655445, 41.181388916624798 ] } },
{ "type": "Feature", "properties": { "name": "BOAVISTA-CASA DA MÚSICA", "id": "metro/bus_BCM2", "W_candidate": 28.689744170251696 }, "geometry": { "type": "Point", "coordinates": [ -8.628524686971019, 41.159772554482501 ] } },
{ "type": "Feature", "properties": { "name": "CASA DE SAÚDE DA BOAVISTA", "id": "metro/bus_CSBV", "W_candidate": 1.8756318625608706 }, "geometry": { "type": "Point", "coordinates": [ -8.63210842357714, 41.164478967290002 ] } },
{ "type": "Feature", "properties": { "name": "CASA DE SAÚDE DA BOAVISTA", "id": "metro/bus_CSBV1", "W_candidate": 1.7561832820326249 }, "geometry": { "type": "Point", "coordinates": [ -8.6309777865394, 41.165137219701897 ] } },
{ "type": "Feature", "properties": { "name": "HOSP.STO. ANTÓNIO", "id": "metro/bus_HSA", "W_candidate": 6.2635853700217599 }, "geometry": { "type": "Point", "coordinates": [ -8.62034235435485, 41.146487708396201 ] } },
{ "type": "Feature", "properties": { "name": "DOMINGOS SEQUEIRA", "id": "metro/bus_DSQ", "W_candidate": 9.5694290511911504 }, "geometry": { "type": "Point", "coordinates": [ -8.63141617010889, 41.162864808302103 ] } },
{ "type": "Feature", "properties": { "name": "CARVALHIDO", "id": "metro/bus_CVI6", "W_candidate": 8.1437364944532646 }, "geometry": { "type": "Point", "coordinates": [ -8.6270152144763, 41.166588786650898 ] } },
{ "type": "Feature", "properties": { "name": "ESC.SOARES DOS REIS", "id": "metro/bus_ESR1", "W_candidate": 2.8768425687302921 }, "geometry": { "type": "Point", "coordinates": [ -8.59354282698459, 41.158061111106399 ] } },
{ "type": "Feature", "properties": { "name": "IGREJA N.SRA DA AJUDA", "id": "metro/bus_INSA1", "W_candidate": 4.6860836888373498 }, "geometry": { "type": "Point", "coordinates": [ -8.65934817160244, 41.153166524029601 ] } },
{ "type": "Feature", "properties": { "name": "IGREJA N.SRA DA AJUDA", "id": "metro/bus_INSA2", "W_candidate": 4.3341532213330609 }, "geometry": { "type": "Point", "coordinates": [ -8.65906847497274, 41.153466745769599 ] } },
{ "type": "Feature", "properties": { "name": "AV.DA BOAVISTA", "id": "metro/bus_ABVT1", "W_candidate": 6.4310888843143275 }, "geometry": { "type": "Point", "coordinates": [ -8.663423419824531, 41.162799989461099 ] } },
{ "type": "Feature", "properties": { "name": "AV.DA BOAVISTA", "id": "metro/bus_ABVT2", "W_candidate": 6.1464129206086131 }, "geometry": { "type": "Point", "coordinates": [ -8.663222258603589, 41.162972178229602 ] } },
{ "type": "Feature", "properties": { "name": "ALEX. HERCULANO", "id": "metro/bus_ALXH3", "W_candidate": 10.270202868859149 }, "geometry": { "type": "Point", "coordinates": [ -8.605250180606729, 41.1442427332737 ] } },
{ "type": "Feature", "properties": { "name": "QUINTA DE BONJÓIA", "id": "metro/bus_QBNJ2", "W_candidate": 0.54352061832669263 }, "geometry": { "type": "Point", "coordinates": [ -8.57688271098788, 41.152833962556898 ] } },
{ "type": "Feature", "properties": { "name": "TRAVESSA DE BONJÓIA", "id": "metro/bus_TBNJ2", "W_candidate": 0.47997773963632595 }, "geometry": { "type": "Point", "coordinates": [ -8.579800285698379, 41.152669582790303 ] } },
{ "type": "Feature", "properties": { "name": "PINHEIRO DE CAMPANHÃ", "id": "metro/bus_PINC2", "W_candidate": 0.38830670073756768 }, "geometry": { "type": "Point", "coordinates": [ -8.58186607499824, 41.151635044737503 ] } },
{ "type": "Feature", "properties": { "name": "RIBEIRA", "id": "metro/bus_RBR2", "W_candidate": 6.0544253169290245 }, "geometry": { "type": "Point", "coordinates": [ -8.61426370642136, 41.1412184432508 ] } },
{ "type": "Feature", "properties": { "name": "GUERRA JUNQUEIRO", "id": "metro/bus_GRJ", "W_candidate": 0.12262868892876495 }, "geometry": { "type": "Point", "coordinates": [ -8.637314843773771, 41.155838270188497 ] } },
{ "type": "Feature", "properties": { "name": "HOSP. STA. MARIA", "id": "metro/bus_HSM2", "W_candidate": 5.538224553225116 }, "geometry": { "type": "Point", "coordinates": [ -8.609899329604319, 41.160166227259801 ] } },
{ "type": "Feature", "properties": { "name": "LUGARINHO", "id": "metro/bus_LUG2", "W_candidate": 2.2896978501257128 }, "geometry": { "type": "Point", "coordinates": [ -8.631709770176199, 41.167477670615902 ] } },
{ "type": "Feature", "properties": { "name": "SERRALVES (MUSEU)", "id": "metro/bus_SRVM5", "W_candidate": 2.9635497667285726 }, "geometry": { "type": "Point", "coordinates": [ -8.660098638577271, 41.159496768002697 ] } },
{ "type": "Feature", "properties": { "name": "BOAVISTA (BOM SUCESSO)", "id": "metro/bus_BS10", "W_candidate": 16.63420475730657 }, "geometry": { "type": "Point", "coordinates": [ -8.628626293110671, 41.156060921401199 ] } },
{ "type": "Feature", "properties": { "name": "LOPES DE MENDONÇA", "id": "metro/bus_LME1", "W_candidate": 4.7192068317022127 }, "geometry": { "type": "Point", "coordinates": [ -8.66394448803643, 41.156527745559899 ] } },