stop_id,stop_code,stop_name,stop_desc,stop_lat,stop_lon,zone_id,stop_url,in,type
1,,Estadio do Dragao,,41.160716,-8.582416,PRT1,,True,metro
2,,Campanha,,41.150537,-8.586245,PRT1,,True,metro
3,,Heroismo,,41.146697,-8.592978,PRT1,,True,metro
4,,24 de Agosto,,41.148796,-8.598349,PRT1,,True,metro
5,,Bolhao,,41.149785,-8.605901,PRT1,,True,metro
6,,Trindade,,41.152277,-8.609299,PRT1,,True,metro
7,,Lapa,,41.157107,-8.616723,PRT1,,True,metro
8,,Carolina Michaelis,,41.158585,-8.622246,PRT1,,True,metro
9,,Casa da Musica,,41.160575,-8.628282,PRT1,,True,metro
10,,Francos,,41.165549,-8.636347,PRT1,,True,metro
11,,Ramalde,,41.172962,-8.641766,PRT2,,True,metro
12,,Via Rapida Viso,,41.177255,-8.646498,PRT2,,True,metro
60,,Sao Bento,,41.144938,-8.610815,PRT1,,True,metro
61,,Aliados,,41.148581,-8.610945,PRT1,,True,metro
62,,Faria Guimaraes,,41.157219,-8.609141,PRT1,,True,metro
63,,Marques,,41.161123,-8.604272,PRT1,,True,metro
64,,Combatentes,,41.165301,-8.598464,PRT1,,True,metro
65,,Salgueiros,,41.169684,-8.598744,PRT1,,True,metro
66,,Polo Universitario,,41.174247,-8.603607,PRT3,,True,metro
67,,I.P.O.,,41.181253,-8.604521,PRT3,,True,metro
68,,Hospital de Sao Joao,,41.18326,-8.60224,PRT3,,True,metro
71,,Batalha,,41.143277,-8.608178,PRT1,,True,metro
72,,Ribeira,,41.140966,-8.609476,PRT1,,True,metro
73,,Contumil,,41.165712,-8.578639,PRT3,,True,metro
74,,Nasoni,,41.170767,-8.577317,PRT3,,True,metro
75,,Nau Vitoria,,41.174122,-8.573534,PRT3,,True,metro
PNV2,PNV2,PAULO NOVAIS,,41.1632255748862,-8.66008592151551,PRT2,http://www.stcp.pt/pt/viajar/paragens/?t=detalhe&paragem=PNV2,True,bus
RBSS1,RBSS1,ROT. DO BESSA,,41.1659174712262,-8.64043999869522,PRT1,http://www.stcp.pt/pt/viajar/paragens/?t=detalhe&paragem=RBSS1,True,bus
RBSS2,RBSS2,ROT. DO BESSA,,41.1645757705016,-8.63886218870307,PRT1,http://www.stcp.pt/pt/viajar/paragens/?t=detalhe&paragem=RBSS2,True,bus
EZC2,EZC2,EZEQUIEL CAMPOS,,41.1744018455506,-8.65405514999967,PRT2,http://www.stcp.pt/pt/viajar/paragens/?t=detalhe&paragem=EZC2,True,bus
FTM1,FTM1,FONTE DA MOURA,,41.1645050753706,-8.66214428637694,PRT2,http://www.stcp.pt/pt/viajar/paragens/?t=detalhe&paragem=FTM1,True,bus
PRO2,PRO2,PEREIRÓ,,41.1724829236104,-8.65566831359889,PRT2,http://www.stcp.pt/pt/viajar/paragens/?t=detalhe&paragem=PRO2,True,bus
SDP1,SDP1,SIDÓNIO PAIS,,41.1645634959404,-8.63700356983206,PRT1,http://www.stcp.pt/pt/viajar/paragens/?t=detalhe&paragem=SDP1,True,bus
MPAZ1,MPAZ1,MAN.P.AZEVEDO 1,,41.1727173293797,-8.64685605350771,PRT2,http://www.stcp.pt/pt/viajar/paragens/?t=detalhe&paragem=MPAZ1,True,bus
RAEP2,RAEP2,ROT. A.E.P.,,41.1783162166436,-8.65404309321578,PRT2,http://www.stcp.pt/pt/viajar/paragens/?t=detalhe&paragem=RAEP2,True,bus
PREC1,PREC1,PRECIOSA,,41.1774842956474,-8.65680134247858,PRT2,http://www.stcp.pt/pt/viajar/paragens/?t=detalhe&paragem=PREC1,True,bus
BMAF1,BMAF1,BEATA MAFALDA,,41.1651948100682,-8.57544247292475,PRT3,http://www.stcp.pt/pt/viajar/paragens/?t=detalhe&paragem=BMAF1,True,bus
BFAL2,BFAL2,BR. FALCÃO,,41.1589316063826,-8.57530731814519,PRT3,http://www.stcp.pt/pt/viajar/paragens/?t=detalhe&paragem=BFAL2,True,bus
LGT2,LGT2,LAGARTEIRO,,41.1517159630332,-8.56879801231881,PRT3,http://www.stcp.pt/pt/viajar/paragens/?t=detalhe&paragem=LGT2,True,bus
EDRG4,EDRG4,ESTÁDIO DO DRAGÃO,,41.1585502766285,-8.58387930401658,PRT1,http://www.stcp.pt/pt/viajar/paragens/?t=detalhe&paragem=EDRG4,True,bus
VLC1,VLC1,VILA COVA,,41.1725261019998,-8.56750648037897,PRT3,http://www.stcp.pt/pt/viajar/paragens/?t=detalhe&paragem=VLC1,True,bus
BNJ1,BNJ1,BONJÓIA,,41.1519958914076,-8.57472081242893,PRT3,http://www.stcp.pt/pt/viajar/paragens/?t=detalhe&paragem=BNJ1,True,bus
GDM1,GDM1,GODIM,,41.1529969720686,-8.59143812120255,PRT1,http://www.stcp.pt/pt/viajar/paragens/?t=detalhe&paragem=GDM1,True,bus
ICAM2,ICAM2,IGREJA DE CAMPANHÃ,,41.155484172028,-8.57412835711773,PRT3,http://www.stcp.pt/pt/viajar/paragens/?t=detalhe&paragem=ICAM2,True,bus
ILH2,ILH2,ILHÉU,,41.163459654508,-8.57242474854225,PRT3,http://www.stcp.pt/pt/viajar/paragens/?t=detalhe&paragem=ILH2,True,bus
ANT1,ANT1,ANTAS (L. CIDADÃO),,41.165305556698,-8.58880550503584,PRT1,http://www.stcp.pt/pt/viajar/paragens/?t=detalhe&paragem=ANT1,True,bus
VRD2,VRD2,VARANDAS,,41.1421957068527,-8.58742526292748,PRT1,http://www.stcp.pt/pt/viajar/paragens/?t=detalhe&paragem=VRD2,True,bus
BRCC1,BRCC1,BR. COSTA CABRAL,,41.1719558095221,-8.58564306925057,PRT3,http://www.stcp.pt/pt/viajar/paragens/?t=detalhe&paragem=BRCC1,True,bus
FVLH2,FVLH2,FONTE VELHA,,41.1576073656917,-8.58682604381052,PRT1,http://www.stcp.pt/pt/viajar/paragens/?t=detalhe&paragem=FVLH2,True,bus
VNFZ2,VNFZ2,VILA NOVA FOZ CÔA,,41.161766178634,-8.56672523380975,PRT3,http://www.stcp.pt/pt/viajar/paragens/?t=detalhe&paragem=VNFZ2,True,bus
PNG1,PNG1,PEGO NEGRO,,41.1591926802081,-8.56667474672459,PRT3,http://www.stcp.pt/pt/viajar/paragens/?t=detalhe&paragem=PNG1,True,bus
PNG2,PNG2,PEGO NEGRO,,41.1590434521004,-8.56649111652642,PRT3,http://www.stcp.pt/pt/viajar/paragens/?t=detalhe&paragem=PNG2,True,bus
FTC2,FTC2,FONTE DE CONTUMIL,,41.1684038036966,-8.58257239579764,PRT3,http://www.stcp.pt/pt/viajar/paragens/?t=detalhe&paragem=FTC2,True,bus
FRX3,FRX3,FREIXO,,41.1462105982412,-8.57823161818415,PRT3,http://www.stcp.pt/pt/viajar/paragens/?t=detalhe&paragem=FRX3,True,bus
LDSM1,LDSM1,LIDADOR-SOEIRO MENDES,,41.1762226520061,-8.66315842022534,PRT2,http://www.stcp.pt/pt/viajar/paragens/?t=detalhe&paragem=LDSM1,True,bus
LDSM2,LDSM2,LIDADOR-SOEIRO MENDES,,41.1763860260505,-8.66408654709962,PRT2,http://www.stcp.pt/pt/viajar/paragens/?t=detalhe&paragem=LDSM2,True,bus
HSJ5,HSJ5,HOSP. S. JOÃO (URGÊNCIA),,41.1829999982669,-8.60102776406601,PRT3,http://www.stcp.pt/pt/viajar/paragens/?t=detalhe&paragem=HSJ5,True,bus
HSJ6,HSJ6,HOSP. S. JOÃO (URGÊNCIA),,41.1828921092331,-8.60052355775418,PRT3,http://www.stcp.pt/pt/viajar/paragens/?t=detalhe&paragem=HSJ6,True,bus
MCE1,MCE1,MUSEU C. ELÉCTRICO,,41.1467235211673,-8.63230283545897,PRT1,http://www.stcp.pt/pt/viajar/paragens/?t=detalhe&paragem=MCE1,True,bus
SMAI1,SMAI1,SALGUEIRO MAIA,,41.148666701264,-8.63129351101723,PRT1,http://www.stcp.pt/pt/viajar/paragens/?t=detalhe&paragem=SMAI1,True,bus
BSS6,BSS6,BESSA,,41.1600608589672,-8.64415417444374,PRT1,http://www.stcp.pt/pt/viajar/paragens/?t=detalhe&paragem=BSS6,True,bus
BBL,BBL,BAIRRO BESSA LEITE,,41.1576420804833,-8.6456426883844,PRT1,http://www.stcp.pt/pt/viajar/paragens/?t=detalhe&paragem=BBL,True,bus
MARB,MARB,MOCIDADE ARRÁBIDA,,41.1514737781223,-8.64633407922938,PRT2,http://www.stcp.pt/pt/viajar/paragens/?t=detalhe&paragem=MARB,True,bus
TEC,TEC,TV. ENTRE CAMPOS,,41.1488889115936,-8.64322215580278,PRT2,http://www.stcp.pt/pt/viajar/paragens/?t=detalhe&paragem=TEC,True,bus
CVLO1,CVLO1,COVELO,,41.1659166900427,-8.60633074918764,PRT1,http://www.stcp.pt/pt/viajar/paragens/?t=detalhe&paragem=CVLO1,True,bus
BPTL1,BPTL1,BR. DA PASTELEIRA,,41.1550733612398,-8.65818545651445,PRT2,http://www.stcp.pt/pt/viajar/paragens/?t=detalhe&paragem=BPTL1,True,bus
BPTL2,BPTL2,BR. DA PASTELEIRA,,41.1548942923963,-8.65819951176446,PRT2,http://www.stcp.pt/pt/viajar/paragens/?t=detalhe&paragem=BPTL2,True,bus
FCA,FCA,FACULDADE ARQUITETURA,,41.1502499402321,-8.63766670872726,PRT1,http://www.stcp.pt/pt/viajar/paragens/?t=detalhe&paragem=FCA,True,bus
SBNT,SBNT,EST.S.BENTO,,41.1453767148614,-8.61098308730028,PRT1,http://www.stcp.pt/pt/viajar/paragens/?t=detalhe&paragem=SBNT,True,bus
BCNT,BCNT,BR.CONTUMIL,,41.1658301293161,-8.58074779384326,PRT3,http://www.stcp.pt/pt/viajar/paragens/?t=detalhe&paragem=BCNT,True,bus
BFTM3,BFTM3,BR. FONTE DA MOURA,,41.1706719933102,-8.66098760297955,PRT2,http://www.stcp.pt/pt/viajar/paragens/?t=detalhe&paragem=BFTM3,True,bus
BFTM4,BFTM4,BR.FONTE DA MOURA,,41.1703108633531,-8.66076544005647,PRT2,http://www.stcp.pt/pt/viajar/paragens/?t=detalhe&paragem=BFTM4,True,bus
PDVD5,PDVD5,PEDRA VERDE,,41.1727771401168,-8.66248446534924,PRT2,http://www.stcp.pt/pt/viajar/paragens/?t=detalhe&paragem=PDVD5,True,bus
CSA3,CSA3,C.SAÚDE DE ALDOAR,,41.1759400277446,-8.66646292124853,PRT2,http://www.stcp.pt/pt/viajar/paragens/?t=detalhe&paragem=CSA3,True,bus
ALCF1,ALCF1,ALCAIDE FARIA,,41.1712301394046,-8.66695801182435,PRT2,http://www.stcp.pt/pt/viajar/paragens/?t=detalhe&paragem=ALCF1,True,bus
PFMA2,PFMA2,PROF. MELO ADRIÃO,,41.1697546290523,-8.66805896947448,PRT2,http://www.stcp.pt/pt/viajar/paragens/?t=detalhe&paragem=PFMA2,True,bus
PVC2,PVC2,PÊRO VAZ CAMINHA,,41.157227465364,-8.66720976404845,PRT2,http://www.stcp.pt/pt/viajar/paragens/?t=detalhe&paragem=PVC2,True,bus
DSS,DSS,DIONÍSIO SANTOS SILVA,,41.1749187495205,-8.60686045560148,PRT3,http://www.stcp.pt/pt/viajar/paragens/?t=detalhe&paragem=DSS,True,bus
REV1,REV1,REVILÃO,,41.1732150727518,-8.66037635836664,PRT2,http://www.stcp.pt/pt/viajar/paragens/?t=detalhe&paragem=REV1,True,bus
REV2,REV2,REVILÃO,,41.1732466794604,-8.66057216561517,PRT2,http://www.stcp.pt/pt/viajar/paragens/?t=detalhe&paragem=REV2,True,bus
PFMA1,PFMA1,PROF.MELO ADRIÃO,,41.1702480859104,-8.66753105454624,PRT2,http://www.stcp.pt/pt/viajar/paragens/?t=detalhe&paragem=PFMA1,True,bus
LDDM1,LDDM1,LIDADOR/M.MONIZ,,41.1752232466717,-8.66144346385612,PRT2,http://www.stcp.pt/pt/viajar/paragens/?t=detalhe&paragem=LDDM1,True,bus
APT1,APT1,ANTÓNIO PATRÍCIO,,41.1591421975883,-8.64091494817787,PRT1,http://www.stcp.pt/pt/viajar/paragens/?t=detalhe&paragem=APT1,True,bus
APT3,APT3,ANTÓNIO PATRÍCIO,,41.158671984914,-8.64057080611727,PRT1,http://www.stcp.pt/pt/viajar/paragens/?t=detalhe&paragem=APT3,True,bus
PPR1,PPR1,PARQUE DA PRELADA,,41.1752546185943,-8.62758669572453,PRT2,http://www.stcp.pt/pt/viajar/paragens/?t=detalhe&paragem=PPR1,True,bus
PPR2,PPR2,PARQUE DA PRELADA,,41.1750731095988,-8.62770843062757,PRT2,http://www.stcp.pt/pt/viajar/paragens/?t=detalhe&paragem=PPR2,True,bus
HPRL3,HPRL3,HOSPITAL DA PRELADA,,41.1699721968225,-8.6291111112403,PRT1,http://www.stcp.pt/pt/viajar/paragens/?t=detalhe&paragem=HPRL3,True,bus
HPRL4,HPRL4,HOSPITAL DA PRELADA,,41.1699166410162,-8.62919446154275,PRT1,http://www.stcp.pt/pt/viajar/paragens/?t=detalhe&paragem=HPRL4,True,bus
MLAM1,MLAM1,MARIA LAMAS,,41.1699999972383,-8.63211108834489,PRT1,http://www.stcp.pt/pt/viajar/paragens/?t=detalhe&paragem=MLAM1,True,bus
MLAM2,MLAM2,MARIA LAMAS,,41.1700277572464,-8.63225000329992,PRT1,http://www.stcp.pt/pt/viajar/paragens/?t=detalhe&paragem=MLAM2,True,bus
CPR1,CPR1,CASA DA PRELADA,,41.1729999421155,-8.63316660537262,PRT2,http://www.stcp.pt/pt/viajar/paragens/?t=detalhe&paragem=CPR1,True,bus
CPR2,CPR2,CASA DA PRELADA,,41.1735277260281,-8.63361107223982,PRT2,http://www.stcp.pt/pt/viajar/paragens/?t=detalhe&paragem=CPR2,True,bus
PREL2,PREL2,PRELADA,,41.1733889106082,-8.63724998274755,PRT2,http://www.stcp.pt/pt/viajar/paragens/?t=detalhe&paragem=PREL2,True,bus
HSA5,HSA5,HOSP. ST. ANTÓNIO,,41.1477660933285,-8.6224501585514,PRT1,http://www.stcp.pt/pt/viajar/paragens/?t=detalhe&paragem=HSA5,True,bus
HMLM3,HMLM3,HOMEM DO LEME,,41.1634071895403,-8.68588700775321,PRT2,http://www.stcp.pt/pt/viajar/paragens/?t=detalhe&paragem=HMLM3,True,bus
LIMA1,LIMA1,LIMA,,41.1635055791932,-8.59940399302261,PRT1,http://www.stcp.pt/pt/viajar/paragens/?t=detalhe&paragem=LIMA1,True,bus
LIMA2,LIMA2,LIMA,,41.163088882519,-8.59970950817532,PRT1,http://www.stcp.pt/pt/viajar/paragens/?t=detalhe&paragem=LIMA2,True,bus
COMB3,COMB3,COMBATENTES,,41.1653389361429,-8.59807071343336,PRT1,http://www.stcp.pt/pt/viajar/paragens/?t=detalhe&paragem=COMB3,True,bus
COMB4,COMB4,COMBATENTES,,41.1655055599403,-8.59801505816703,PRT1,http://www.stcp.pt/pt/viajar/paragens/?t=detalhe&paragem=COMB4,True,bus
DC4,DC4,DIOGO CÃO,,41.1645242392236,-8.59222508771234,PRT1,http://www.stcp.pt/pt/viajar/paragens/?t=detalhe&paragem=DC4,True,bus
DC5,DC5,DIOGO CÃO,,41.1647556060664,-8.59234836085641,PRT1,http://www.stcp.pt/pt/viajar/paragens/?t=detalhe&paragem=DC5,True,bus
PBSS4,PBSS4,PINTO BESSA,,41.1495554959455,-8.58852770790417,PRT1,http://www.stcp.pt/pt/viajar/paragens/?t=detalhe&paragem=PBSS4,True,bus
A25A1,A25A1,AV. 25 DE ABRIL,,41.1555277896634,-8.58608327383168,PRT1,http://www.stcp.pt/pt/viajar/paragens/?t=detalhe&paragem=A25A1,True,bus
FALC,FALC,FALCÃO,,41.1602778011847,-8.57522226709904,PRT3,http://www.stcp.pt/pt/viajar/paragens/?t=detalhe&paragem=FALC,True,bus
CRT2,CRT2,CARTES,,41.1613611136838,-8.57294446968271,PRT3,http://www.stcp.pt/pt/viajar/paragens/?t=detalhe&paragem=CRT2,True,bus
PSG1,PSG1,PEDRAS SALGADAS,,41.1590554973152,-8.5697777180413,PRT3,http://www.stcp.pt/pt/viajar/paragens/?t=detalhe&paragem=PSG1,True,bus
CPTO1,CPTO1,CERCO DO PORTO,,41.1604048354147,-8.57028567381111,PRT3,http://www.stcp.pt/pt/viajar/paragens/?t=detalhe&paragem=CPTO1,True,bus
EDRG1,EDRG1,ESTÁDIO DO DRAGÃO,,41.1602777640038,-8.58380550692549,PRT1,http://www.stcp.pt/pt/viajar/paragens/?t=detalhe&paragem=EDRG1,True,bus
EDRG2,EDRG2,ESTÁDIO DO DRAGÃO,,41.1614722272002,-8.58186114728745,PRT1,http://www.stcp.pt/pt/viajar/paragens/?t=detalhe&paragem=EDRG2,True,bus
PCRJ1,PCRJ1,PR. DA CORUJEIRA,,41.1569193474662,-8.5798649539462,PRT3,http://www.stcp.pt/pt/viajar/paragens/?t=detalhe&paragem=PCRJ1,True,bus
BCM1,BCM1,BOAVISTA-CASA DA MÚSICA,,41.1589030350552,-8.62954202333796,PRT1,http://www.stcp.pt/pt/viajar/paragens/?t=detalhe&paragem=BCM1,True,bus
ABSS1,ABSS1,AV. DO BESSA,,41.1652793149154,-8.64309026465875,PRT1,http://www.stcp.pt/pt/viajar/paragens/?t=detalhe&paragem=ABSS1,True,bus
ABSS2,ABSS2,AV. DO BESSA,,41.1650355311356,-8.64313960565853,PRT1,http://www.stcp.pt/pt/viajar/paragens/?t=detalhe&paragem=ABSS2,True,bus
RCP1,RCP1,R. CERCO DO PORTO,,41.164444389681,-8.56727780703448,PRT3,http://www.stcp.pt/pt/viajar/paragens/?t=detalhe&paragem=RCP1,True,bus
RCP2,RCP2,R. CERCO DO PORTO,,41.1648333137464,-8.56738892869389,PRT3,http://www.stcp.pt/pt/viajar/paragens/?t=detalhe&paragem=RCP2,True,bus
SOCR,SOCR,SOARES CORREIA,,41.1667832502617,-8.62998746296401,PRT1,http://www.stcp.pt/pt/viajar/paragens/?t=detalhe&paragem=SOCR,True,bus
ALFG5,ALFG5,ALFÂNDEGA,,41.1437512039268,-8.6222320395788,PRT1,http://www.stcp.pt/pt/viajar/paragens/?t=detalhe&paragem=ALFG5,True,bus
FTNH2,FTNH2,FONTINHA,,41.1555623187911,-8.60475772390974,PRT1,http://www.stcp.pt/pt/viajar/paragens/?t=detalhe&paragem=FTNH2,True,bus
CORD2,CORD2,CORDOARIA,,41.1450298042004,-8.61642417009534,PRT1,http://www.stcp.pt/pt/viajar/paragens/?t=detalhe&paragem=CORD2,True,bus
CORD1,CORD1,CORDOARIA,,41.1464444733634,-8.61522219312027,PRT1,http://www.stcp.pt/pt/viajar/paragens/?t=detalhe&paragem=CORD1,True,bus
CORD3,CORD3,CORDOARIA,,41.1463860773766,-8.61521223485268,PRT1,http://www.stcp.pt/pt/viajar/paragens/?t=detalhe&paragem=CORD3,True,bus
CORD5,CORD5,CORDOARIA,,41.1461721311939,-8.61532061006743,PRT1,http://www.stcp.pt/pt/viajar/paragens/?t=detalhe&paragem=CORD5,True,bus
CORD4,CORD4,CORDOARIA,,41.1451110885692,-8.61619439750697,PRT1,http://www.stcp.pt/pt/viajar/paragens/?t=detalhe&paragem=CORD4,True,bus
CORD7,CORD7,CORDOARIA,,41.1452237192497,-8.61602608073269,PRT1,http://www.stcp.pt/pt/viajar/paragens/?t=detalhe&paragem=CORD7,True,bus
SLZ1,SLZ1,S. LÁZARO,,41.1455265452145,-8.60250756990213,PRT1,http://www.stcp.pt/pt/viajar/paragens/?t=detalhe&paragem=SLZ1,True,bus
CRVH1,CRVH1,CORDOARIA VELHA,,41.1479385618698,-8.65046235246066,PRT2,http://www.stcp.pt/pt/viajar/paragens/?t=detalhe&paragem=CRVH1,True,bus
CVI2,CVI2,CARVALHIDO,,41.1667499732589,-8.62524994840412,PRT1,http://www.stcp.pt/pt/viajar/paragens/?t=detalhe&paragem=CVI2,True,bus
PCL1,PCL1,PADRE LUIS CABRAL,,41.1518055810922,-8.66805554799815,PRT2,http://www.stcp.pt/pt/viajar/paragens/?t=detalhe&paragem=PCL1,True,bus
GC11,GC11,GOMES COSTA 1,,41.1616719211784,-8.65698756221216,PRT2,http://www.stcp.pt/pt/viajar/paragens/?t=detalhe&paragem=GC11,True,bus
FOCO3,FOCO3,FOCO,,41.1610331140149,-8.64793196996537,PRT1,http://www.stcp.pt/pt/viajar/paragens/?t=detalhe&paragem=FOCO3,True,bus
PGM2,PGM2,PAULO DA GAMA,,41.1480468467105,-8.65728648510656,PRT2,http://www.stcp.pt/pt/viajar/paragens/?t=detalhe&paragem=PGM2,True,bus
LRD1,LRD1,LORDELO,,41.154388913035,-8.64902771034446,PRT2,http://www.stcp.pt/pt/viajar/paragens/?t=detalhe&paragem=LRD1,True,bus
PFOZ2,PFOZ2,PINHAIS DA FOZ,,41.1551445195727,-8.66326007592277,PRT2,http://www.stcp.pt/pt/viajar/paragens/?t=detalhe&paragem=PFOZ2,True,bus
PFOZ1,PFOZ1,PINHAIS DA FOZ,,41.1552499643262,-8.66308329782543,PRT2,http://www.stcp.pt/pt/viajar/paragens/?t=detalhe&paragem=PFOZ1,True,bus
LGO4,LGO4,LICEU GARCIA ORTA,,41.1615277398592,-8.66677782046248,PRT2,http://www.stcp.pt/pt/viajar/paragens/?t=detalhe&paragem=LGO4,True,bus
MF1,MF1,MARTIM FREITAS,,41.1741648749537,-8.66250328907683,PRT2,http://www.stcp.pt/pt/viajar/paragens/?t=detalhe&paragem=MF1,True,bus
PRCD3,PRCD3,PARQUE DA CIDADE,,41.1651064833907,-8.67121770096046,PRT2,http://www.stcp.pt/pt/viajar/paragens/?t=detalhe&paragem=PRCD3,True,bus
PRCD2,PRCD2,PARQUE CIDADE,,41.1657221616988,-8.67091664361759,PRT2,http://www.stcp.pt/pt/viajar/paragens/?t=detalhe&paragem=PRCD2,True,bus
PRCD1,PRCD1,PARQUE CIDADE,,41.1654562886506,-8.67073871431791,PRT2,http://www.stcp.pt/pt/viajar/paragens/?t=detalhe&paragem=PRCD1,True,bus
BARO1,BARO1,BAIRRO ANT. AROSO,,41.167897291531,-8.6695151846345,PRT2,http://www.stcp.pt/pt/viajar/paragens/?t=detalhe&paragem=BARO1,True,bus
PDVD4,PDVD4,PEDRA VERDE,,41.1728851305907,-8.66284927101512,PRT2,http://www.stcp.pt/pt/viajar/paragens/?t=detalhe&paragem=PDVD4,True,bus
IGAL1,IGAL1,IGREJA DE ALDOAR,,41.17008776155,-8.66641737733975,PRT2,http://www.stcp.pt/pt/viajar/paragens/?t=detalhe&paragem=IGAL1,True,bus
PDVD3,PDVD3,PEDRA VERDE,,41.1726143982083,-8.66290249737098,PRT2,http://www.stcp.pt/pt/viajar/paragens/?t=detalhe&paragem=PDVD3,True,bus
LDD2,LDD2,LIDADOR,,41.1703065341663,-8.65748178273337,PRT2,http://www.stcp.pt/pt/viajar/paragens/?t=detalhe&paragem=LDD2,True,bus
TVLR2,TVLR2,TEATRO VILARINHA,,41.1732381506265,-8.67347467538393,PRT2,http://www.stcp.pt/pt/viajar/paragens/?t=detalhe&paragem=TVLR2,True,bus
LGO5,LGO5,LICEU GARCIA ORTA,,41.161472227166,-8.66636107379378,PRT2,http://www.stcp.pt/pt/viajar/paragens/?t=detalhe&paragem=LGO5,True,bus
CRRP2,CRRP2,CORREIA PINTO,,41.1688129950066,-8.65876439207002,PRT2,http://www.stcp.pt/pt/viajar/paragens/?t=detalhe&paragem=CRRP2,True,bus
FTM2,FTM2,FONTE DA MOURA,,41.164191487547,-8.66264612362605,PRT2,http://www.stcp.pt/pt/viajar/paragens/?t=detalhe&paragem=FTM2,True,bus
BFTM2,BFTM2,BR. FONTE DA MOURA,,41.1710853761469,-8.65845310977672,PRT2,http://www.stcp.pt/pt/viajar/paragens/?t=detalhe&paragem=BFTM2,True,bus
FTM4,FTM4,FONTE DA MOURA,,41.1637583932638,-8.66344462750878,PRT2,http://www.stcp.pt/pt/viajar/paragens/?t=detalhe&paragem=FTM4,True,bus
BRV2,BRV2,BAIRRO VILARINHA,,41.1672045428389,-8.66006758804244,PRT2,http://www.stcp.pt/pt/viajar/paragens/?t=detalhe&paragem=BRV2,True,bus
LGO2,LGO2,LICEU GARCIA ORTA,,41.1644880787122,-8.66776284531726,PRT2,http://www.stcp.pt/pt/viajar/paragens/?t=detalhe&paragem=LGO2,True,bus
ESCN2,ESCN2,ESCOLA NORMAL,,41.1555143677945,-8.60252681207867,PRT1,http://www.stcp.pt/pt/viajar/paragens/?t=detalhe&paragem=ESCN2,True,bus
EIR3,EIR3,EIRINHAS,,41.1522021193943,-8.59223883716414,PRT1,http://www.stcp.pt/pt/viajar/paragens/?t=detalhe&paragem=EIR3,True,bus
BFM4,BFM4,BONFIM,,41.1505833533499,-8.59475001263672,PRT1,http://www.stcp.pt/pt/viajar/paragens/?t=detalhe&paragem=BFM4,True,bus
MAV2,MAV2,MONTE AVENTINO,,41.1631052472004,-8.5904444863076,PRT1,http://www.stcp.pt/pt/viajar/paragens/?t=detalhe&paragem=MAV2,True,bus
ASP4,ASP4,ASPRELA,,41.1821943964627,-8.59647218542059,PRT3,http://www.stcp.pt/pt/viajar/paragens/?t=detalhe&paragem=ASP4,True,bus
PREG1,PREG1,PESO DA RÉGUA,,41.1623076767468,-8.56951197983897,PRT3,http://www.stcp.pt/pt/viajar/paragens/?t=detalhe&paragem=PREG1,True,bus
CVLO2,CVLO2,COVELO,,41.1653737738053,-8.60588358431793,PRT1,http://www.stcp.pt/pt/viajar/paragens/?t=detalhe&paragem=CVLO2,True,bus
GGF,GGF,GUIL. G. FERNANDES,,41.1475602128653,-8.61476664888298,PRT1,http://www.stcp.pt/pt/viajar/paragens/?t=detalhe&paragem=GGF,True,bus
CMO,CMO,CARMO,,41.1472276569054,-8.61695947381185,PRT1,http://www.stcp.pt/pt/viajar/paragens/?t=detalhe&paragem=CMO,True,bus
MIS3,MIS3,MIOSÓTIS,,41.1777851655039,-8.61906089348722,PRT2,http://www.stcp.pt/pt/viajar/paragens/?t=detalhe&paragem=MIS3,True,bus
COLS,COLS,COLISEU DO PORTO,,41.1466110703925,-8.60469448708929,PRT1,http://www.stcp.pt/pt/viajar/paragens/?t=detalhe&paragem=COLS,True,bus
PRDJ,PRDJ,PR. D. JOÃO I,,41.1475811967699,-8.60912607741907,PRT1,http://www.stcp.pt/pt/viajar/paragens/?t=detalhe&paragem=PRDJ,True,bus
TLHR3,TLHR3,R.TELHEIRA,,41.1778288427241,-8.61461084505317,PRT3,http://www.stcp.pt/pt/viajar/paragens/?t=detalhe&paragem=TLHR3,True,bus
MIS4,MIS4,MIOSÓTIS,,41.1780621109676,-8.61898154826045,PRT2,http://www.stcp.pt/pt/viajar/paragens/?t=detalhe&paragem=MIS4,True,bus
BRA5,BRA5,BR. DO AMIAL,,41.1768333146696,-8.61999996143924,PRT2,http://www.stcp.pt/pt/viajar/paragens/?t=detalhe&paragem=BRA5,True,bus
JPAZ2,JPAZ2,JULGADO DE PAZ,,41.1756666401173,-8.64472226407109,PRT2,http://www.stcp.pt/pt/viajar/paragens/?t=detalhe&paragem=JPAZ2,True,bus
RM4,RM4,RAMALDE DO MEIO,,41.1733333216516,-8.64213887205295,PRT2,http://www.stcp.pt/pt/viajar/paragens/?t=detalhe&paragem=RM4,True,bus
FRB,FRB,FRANCOS (BOMBEIROS),,41.1704711675065,-8.64292613473066,PRT2,http://www.stcp.pt/pt/viajar/paragens/?t=detalhe&paragem=FRB,True,bus
PRSM1,PRSM1,PARAÍSO (METRO),,41.1570540576503,-8.60910232409264,PRT1,http://www.stcp.pt/pt/viajar/paragens/?t=detalhe&paragem=PRSM1,True,bus
PRSM2,PRSM2,PARAÍSO (METRO),,41.1569933303712,-8.61006701903923,PRT1,http://www.stcp.pt/pt/viajar/paragens/?t=detalhe&paragem=PRSM2,True,bus
GONS2,GONS2,GONÇALO SAMPAIO,,41.1540812384566,-8.63154248514005,PRT1,http://www.stcp.pt/pt/viajar/paragens/?t=detalhe&paragem=GONS2,True,bus
GONS1,GONS1,GONÇALO SAMPAIO,,41.1540054135173,-8.63195958742095,PRT1,http://www.stcp.pt/pt/viajar/paragens/?t=detalhe&paragem=GONS1,True,bus
BRRS1,BRRS1,BARROCAS,,41.1724397906059,-8.58749002319739,PRT3,http://www.stcp.pt/pt/viajar/paragens/?t=detalhe&paragem=BRRS1,True,bus
BRRS2,BRRS2,BARROCAS,,41.171855547345,-8.5880254347578,PRT3,http://www.stcp.pt/pt/viajar/paragens/?t=detalhe&paragem=BRRS2,True,bus
BARO2,BARO2,BAIRRO ANT. AROSO,,41.1683363689563,-8.6691611798055,PRT2,http://www.stcp.pt/pt/viajar/paragens/?t=detalhe&paragem=BARO2,True,bus
PASS2,PASS2,PASSEIO ALEGRE,,41.1476855828992,-8.66767010345249,PRT2,http://www.stcp.pt/pt/viajar/paragens/?t=detalhe&paragem=PASS2,True,bus
EQ4,EQ4,ENTRE QUINTAS,,41.1456442135867,-8.62865393211318,PRT1,http://www.stcp.pt/pt/viajar/paragens/?t=detalhe&paragem=EQ4,True,bus
EQ3,EQ3,ENTRE QUINTAS,,41.1455886877021,-8.62870949813162,PRT1,http://www.stcp.pt/pt/viajar/paragens/?t=detalhe&paragem=EQ3,True,bus
SR2,SR2,S. ROQUE,,41.166147169914,-8.56934937734291,PRT3,http://www.stcp.pt/pt/viajar/paragens/?t=detalhe&paragem=SR2,True,bus
PSOC2,PSOC2,PERPÉTUO SOCORRO,,41.1623773075703,-8.60360986735047,PRT1,http://www.stcp.pt/pt/viajar/paragens/?t=detalhe&paragem=PSOC2,True,bus
MSTO1,MSTO1,MONSANTO,,41.1705323211569,-8.62042710383199,PRT1,http://www.stcp.pt/pt/viajar/paragens/?t=detalhe&paragem=MSTO1,True,bus
PBSS1,PBSS1,PINTO BESSA,,41.1489247643612,-8.58815952966035,PRT1,http://www.stcp.pt/pt/viajar/paragens/?t=detalhe&paragem=PBSS1,True,bus
BFB,BFB,BONFIM BARREIROS,,41.1692739649444,-8.58427460235736,PRT3,http://www.stcp.pt/pt/viajar/paragens/?t=detalhe&paragem=BFB,True,bus
EDRG3,EDRG3,ESTÁDIO DO DRAGÃO,,41.1585832937802,-8.58361110672841,PRT1,http://www.stcp.pt/pt/viajar/paragens/?t=detalhe&paragem=EDRG3,True,bus
ARS4,ARS4,AREOSA,,41.1805808017318,-8.58261235632332,PRT3,http://www.stcp.pt/pt/viajar/paragens/?t=detalhe&paragem=ARS4,True,bus
DJ32,DJ32,D.JOÃO III,,41.1576068812087,-8.66029160246177,PRT2,http://www.stcp.pt/pt/viajar/paragens/?t=detalhe&paragem=DJ32,True,bus
BRCC2,BRCC2,BR. COSTA CABRAL,,41.1717438011286,-8.585975267335,PRT3,http://www.stcp.pt/pt/viajar/paragens/?t=detalhe&paragem=BRCC2,True,bus
PLIM1,PLIM1,PIRES DE LIMA,,41.1662074270656,-8.59686006240623,PRT1,http://www.stcp.pt/pt/viajar/paragens/?t=detalhe&paragem=PLIM1,True,bus
BRCP1,BRCP1,BR. CAMPINAS,,41.1690523846022,-8.65089772886141,PRT2,http://www.stcp.pt/pt/viajar/paragens/?t=detalhe&paragem=BRCP1,True,bus
MSTO2,MSTO2,MONSANTO,,41.170358909367,-8.6201911857691,PRT1,http://www.stcp.pt/pt/viajar/paragens/?t=detalhe&paragem=MSTO2,True,bus
IGAL2,IGAL2,IGREJA DE  ALDOAR,,41.170421789441,-8.666268398878,PRT2,http://www.stcp.pt/pt/viajar/paragens/?t=detalhe&paragem=IGAL2,True,bus
CAZ,CAZ,COUTINHO AZEVEDO,,41.1593320467856,-8.59699399714811,PRT1,http://www.stcp.pt/pt/viajar/paragens/?t=detalhe&paragem=CAZ,True,bus
NAVE2,NAVE2,NAVE,,41.1515854289193,-8.59745626331974,PRT1,http://www.stcp.pt/pt/viajar/paragens/?t=detalhe&paragem=NAVE2,True,bus
VRD1,VRD1,VARANDAS,,41.1422476473586,-8.58754270859554,PRT1,http://www.stcp.pt/pt/viajar/paragens/?t=detalhe&paragem=VRD1,True,bus
MRD,MRD,MOREDA,,41.1508333457869,-8.6002221870917,PRT1,http://www.stcp.pt/pt/viajar/paragens/?t=detalhe&paragem=MRD,True,bus
C24A1,C24A1,CAMPO 24 DE AGOSTO,,41.1487547459371,-8.59839327398482,PRT1,http://www.stcp.pt/pt/viajar/paragens/?t=detalhe&paragem=C24A1,True,bus
GND2,GND2,GUINDAIS,,41.141591046829,-8.60591063690459,PRT1,http://www.stcp.pt/pt/viajar/paragens/?t=detalhe&paragem=GND2,True,bus
FRNS1,FRNS1,FORNOS,,41.1402746279812,-8.59119316068959,PRT1,http://www.stcp.pt/pt/viajar/paragens/?t=detalhe&paragem=FRNS1,True,bus
MAV1,MAV1,MONTE AVENTINO,,41.1630610958596,-8.59022589788694,PRT1,http://www.stcp.pt/pt/viajar/paragens/?t=detalhe&paragem=MAV1,True,bus
PTDM1,PTDM1,PTE.D.MARIA PIA,,41.1402893404942,-8.59585823194325,PRT1,http://www.stcp.pt/pt/viajar/paragens/?t=detalhe&paragem=PTDM1,True,bus
ESCL,ESCL,ESCOLAS,,41.1641863025076,-8.57037044841758,PRT3,http://www.stcp.pt/pt/viajar/paragens/?t=detalhe&paragem=ESCL,True,bus
ICDF1,ICDF1,IGREJA CEDOFEITA,,41.1558245273513,-8.62226600063532,PRT1,http://www.stcp.pt/pt/viajar/paragens/?t=detalhe&paragem=ICDF1,True,bus
AVF2,AVF2,AV.FRANÇA,,41.1646167439743,-8.62586700155765,PRT1,http://www.stcp.pt/pt/viajar/paragens/?t=detalhe&paragem=AVF2,True,bus
BSB,BSB,SAPADOR. BOMBEIROS,,41.163368071324,-8.61567464751422,PRT1,http://www.stcp.pt/pt/viajar/paragens/?t=detalhe&paragem=BSB,True,bus
BCG,BCG,BCG,,41.1636552366185,-8.61795859816389,PRT1,http://www.stcp.pt/pt/viajar/paragens/?t=detalhe&paragem=BCG,True,bus
PISC,PISC,PISCINA CONSTIT.,,41.1630384266718,-8.61303009999801,PRT1,http://www.stcp.pt/pt/viajar/paragens/?t=detalhe&paragem=PISC,True,bus
HML1,HML1,HOSPITAL MILITAR,,41.1571757541221,-8.62421814072018,PRT1,http://www.stcp.pt/pt/viajar/paragens/?t=detalhe&paragem=HML1,True,bus
PRR5,PRR5,PR. DA REPÚBLICA,,41.1546047108657,-8.61338837757046,PRT1,http://www.stcp.pt/pt/viajar/paragens/?t=detalhe&paragem=PRR5,True,bus
CZV1,CZV1,CRUZ VERMELHA,,41.1607974344741,-8.62464211204025,PRT1,http://www.stcp.pt/pt/viajar/paragens/?t=detalhe&paragem=CZV1,True,bus
NAT2,NAT2,NATÁRIA,,41.1672222347609,-8.62430560225017,PRT1,http://www.stcp.pt/pt/viajar/paragens/?t=detalhe&paragem=NAT2,True,bus
MTCV,MTCV,MONTE CATIVO,,41.1622691915732,-8.61606058694031,PRT1,http://www.stcp.pt/pt/viajar/paragens/?t=detalhe&paragem=MTCV,True,bus
CMIC2,CMIC2,CAROLINA MICHAELIS,,41.1581072055644,-8.62277148557972,PRT1,http://www.stcp.pt/pt/viajar/paragens/?t=detalhe&paragem=CMIC2,True,bus
MATR,MATR,MATERNIDADE,,41.1509827904635,-8.62276468441399,PRT1,http://www.stcp.pt/pt/viajar/paragens/?t=detalhe&paragem=MATR,True,bus
FIG,FIG,FIGUEIROA,,41.1559563799195,-8.61685642612851,PRT1,http://www.stcp.pt/pt/viajar/paragens/?t=detalhe&paragem=FIG,True,bus
HML2,HML2,HOSPITAL MILITAR,,41.1568065678474,-8.62508389031128,PRT1,http://www.stcp.pt/pt/viajar/paragens/?t=detalhe&paragem=HML2,True,bus
FTC1,FTC1,FONTE DE CONTUMIL,,41.168299652404,-8.58274934725725,PRT3,http://www.stcp.pt/pt/viajar/paragens/?t=detalhe&paragem=FTC1,True,bus
NAT1,NAT1,NATÁRIA,,41.1673333435058,-8.624222190384,PRT1,http://www.stcp.pt/pt/viajar/paragens/?t=detalhe&paragem=NAT1,True,bus
QTAM1,QTAM1,QUINTA AMARELA,,41.1623099476185,-8.62468918474945,PRT1,http://www.stcp.pt/pt/viajar/paragens/?t=detalhe&paragem=QTAM1,True,bus
QTAM2,QTAM2,QUINTA AMARELA,,41.1627539888818,-8.62486885029447,PRT1,http://www.stcp.pt/pt/viajar/paragens/?t=detalhe&paragem=QTAM2,True,bus
AQL1,AQL1,ANTERO DE QUENTAL,,41.1626805106214,-8.61019700008461,PRT1,http://www.stcp.pt/pt/viajar/paragens/?t=detalhe&paragem=AQL1,True,bus
CVI1,CVI1,CARVALHIDO,,41.1665226280822,-8.6249948004954,PRT1,http://www.stcp.pt/pt/viajar/paragens/?t=detalhe&paragem=CVI1,True,bus
CVI3,CVI3,CARVALHIDO,,41.1670000186615,-8.62602776701539,PRT1,http://www.stcp.pt/pt/viajar/paragens/?t=detalhe&paragem=CVI3,True,bus
JRC1,JRC1,JOÃO R. CABRILHO,,41.155722246375,-8.65988892113369,PRT2,http://www.stcp.pt/pt/viajar/paragens/?t=detalhe&paragem=JRC1,True,bus
SRV1,SRV1,SERRALVES,,41.1606441100212,-8.659209740207,PRT2,http://www.stcp.pt/pt/viajar/paragens/?t=detalhe&paragem=SRV1,True,bus
SRV2,SRV2,SERRALVES,,41.1609774935843,-8.65782091900664,PRT2,http://www.stcp.pt/pt/viajar/paragens/?t=detalhe&paragem=SRV2,True,bus
TRR4,TRR4,TORRES,,41.150529109202,-8.66421727454817,PRT2,http://www.stcp.pt/pt/viajar/paragens/?t=detalhe&paragem=TRR4,True,bus
UC1,UC1,UNIV. CATÓLICA,,41.1535381595891,-8.67091559374689,PRT2,http://www.stcp.pt/pt/viajar/paragens/?t=detalhe&paragem=UC1,True,bus
UC2,UC2,UNIV. CATÓLICA,,41.15354328988,-8.67108921022533,PRT2,http://www.stcp.pt/pt/viajar/paragens/?t=detalhe&paragem=UC2,True,bus
PT2,PT2,PASTELEIRA,,41.1504166783044,-8.66108335752012,PRT2,http://www.stcp.pt/pt/viajar/paragens/?t=detalhe&paragem=PT2,True,bus
FLU3,FLU3,FLUVIAL,,41.1484162476073,-8.65386955554422,PRT2,http://www.stcp.pt/pt/viajar/paragens/?t=detalhe&paragem=FLU3,True,bus
STC1,STC1,S.TA CATARINA,,41.1507048016016,-8.65099353184922,PRT2,http://www.stcp.pt/pt/viajar/paragens/?t=detalhe&paragem=STC1,True,bus
PINM3,PINM3,PINHEIRO MANSO,,41.1618664412641,-8.65287641523893,PRT2,http://www.stcp.pt/pt/viajar/paragens/?t=detalhe&paragem=PINM3,True,bus
PLM1,PLM1,PALMEIRAS,,41.1523560226214,-8.65210707261166,PRT2,http://www.stcp.pt/pt/viajar/paragens/?t=detalhe&paragem=PLM1,True,bus
PLM2,PLM2,PALMEIRAS,,41.1526362153838,-8.65133327586126,PRT2,http://www.stcp.pt/pt/viajar/paragens/?t=detalhe&paragem=PLM2,True,bus
PG1,PG1,PAULO DA GAMA,,41.1508558120513,-8.65870721609269,PRT2,http://www.stcp.pt/pt/viajar/paragens/?t=detalhe&paragem=PG1,True,bus
PGM1,PGM1,PAULO DA GAMA,,41.1482032963366,-8.65717778452284,PRT2,http://www.stcp.pt/pt/viajar/paragens/?t=detalhe&paragem=PGM1,True,bus
FLU2,FLU2,FLUVIAL,,41.1485797049366,-8.6537039612532,PRT2,http://www.stcp.pt/pt/viajar/paragens/?t=detalhe&paragem=FLU2,True,bus
PCL2,PCL2,PADRE LUIS CABRAL,,41.1515373387597,-8.66778580167502,PRT2,http://www.stcp.pt/pt/viajar/paragens/?t=detalhe&paragem=PCL2,True,bus
JBR2,JBR2,JOÃO BARROS,,41.1583663722483,-8.66426530735401,PRT2,http://www.stcp.pt/pt/viajar/paragens/?t=detalhe&paragem=JBR2,True,bus
VDAM1,VDAM1,VITORINO DAMASIO,,41.169294842318,-8.5941434691122,PRT1,http://www.stcp.pt/pt/viajar/paragens/?t=detalhe&paragem=VDAM1,True,bus
BS4,BS4,BOAVISTA - B.SUCESSO,,41.1559942707683,-8.62846364594593,PRT1,http://www.stcp.pt/pt/viajar/paragens/?t=detalhe&paragem=BS4,True,bus
BS7,BS7,BOAVISTA - B.SUCESSO,,41.1558943109686,-8.62848743358305,PRT1,http://www.stcp.pt/pt/viajar/paragens/?t=detalhe&paragem=BS7,True,bus
BS8,BS8,BOM SUCESSO,,41.1551497874929,-8.62852017627506,PRT1,http://www.stcp.pt/pt/viajar/paragens/?t=detalhe&paragem=BS8,True,bus
BIC3,BIC3,BICALHO,,41.1483888916822,-8.63699997576471,PRT1,http://www.stcp.pt/pt/viajar/paragens/?t=detalhe&paragem=BIC3,True,bus
PARR4,PARR4,PONTE ARRÁBIDA,,41.148404706393,-8.64013968148057,PRT1,http://www.stcp.pt/pt/viajar/paragens/?t=detalhe&paragem=PARR4,True,bus
FLU6,FLU6,FLUVIAL,,41.1484444326302,-8.65374994210878,PRT2,http://www.stcp.pt/pt/viajar/paragens/?t=detalhe&paragem=FLU6,True,bus
DL5,DL5,D.LEONOR,,41.1471944553566,-8.66024993713102,PRT2,http://www.stcp.pt/pt/viajar/paragens/?t=detalhe&paragem=DL5,True,bus
DL6,DL6,D.LEONOR,,41.147138846089,-8.66022221231453,PRT2,http://www.stcp.pt/pt/viajar/paragens/?t=detalhe&paragem=DL6,True,bus
PINM5,PINM5,PINHEIRO MANSO,,41.1621944735708,-8.65099994372078,PRT2,http://www.stcp.pt/pt/viajar/paragens/?t=detalhe&paragem=PINM5,True,bus
PINM6,PINM6,PINHEIRO MANSO,,41.1623998934502,-8.65111249093481,PRT2,http://www.stcp.pt/pt/viajar/paragens/?t=detalhe&paragem=PINM6,True,bus
SJB1,SJB1,S. JOÃO DE BRITO,,41.1664935264169,-8.65058537046117,PRT2,http://www.stcp.pt/pt/viajar/paragens/?t=detalhe&paragem=SJB1,True,bus
SJB2,SJB2,S. JOÃO DE BRITO,,41.1663855703794,-8.65060429885864,PRT2,http://www.stcp.pt/pt/viajar/paragens/?t=detalhe&paragem=SJB2,True,bus
SRC1,SRC1,SRA.CAMPANHÃ,,41.166437421854,-8.57431220672404,PRT3,http://www.stcp.pt/pt/viajar/paragens/?t=detalhe&paragem=SRC1,True,bus
STCT,STCT,SOUTO CONTUMIL,,41.1672792477199,-8.5785771183227,PRT3,http://www.stcp.pt/pt/viajar/paragens/?t=detalhe&paragem=STCT,True,bus
CMP1,CMP1,CAMPANHÃ,,41.1496617166864,-8.58589257517866,PRT1,http://www.stcp.pt/pt/viajar/paragens/?t=detalhe&paragem=CMP1,True,bus
RC1,RC1,R. CONTUMIL,,41.1696873812019,-8.58680449009278,PRT3,http://www.stcp.pt/pt/viajar/paragens/?t=detalhe&paragem=RC1,True,bus
NVT,NVT,NAVAS TOLOSA,,41.1682422479517,-8.57134479390214,PRT3,http://www.stcp.pt/pt/viajar/paragens/?t=detalhe&paragem=NVT,True,bus
CRJ2,CRJ2,CORUJEIRA,,41.1594193279733,-8.58080401684803,PRT3,http://www.stcp.pt/pt/viajar/paragens/?t=detalhe&paragem=CRJ2,True,bus
CNTM2,CNTM2,CONTUMIL (METRO),,41.1659916734209,-8.57856837481981,PRT3,http://www.stcp.pt/pt/viajar/paragens/?t=detalhe&paragem=CNTM2,True,bus
ARNH2,ARNH2,AREINHO,,41.144338916263,-8.57870932399767,PRT3,http://www.stcp.pt/pt/viajar/paragens/?t=detalhe&paragem=ARNH2,True,bus
PQN1,PQN1,PARQUE NASCENTE,,41.1746423167484,-8.56744899660946,PRT3,http://www.stcp.pt/pt/viajar/paragens/?t=detalhe&paragem=PQN1,True,bus
BCP1,BCP1,BR.CERCO PORTO,,41.1573065845836,-8.57049139418464,PRT3,http://www.stcp.pt/pt/viajar/paragens/?t=detalhe&paragem=BCP1,True,bus
JAE1,JAE1,J.A.E.,,41.1438111431712,-8.58220936134884,PRT1,http://www.stcp.pt/pt/viajar/paragens/?t=detalhe&paragem=JAE1,True,bus
JAE2,JAE2,J.A.E.,,41.1436722141313,-8.5827370378595,PRT1,http://www.stcp.pt/pt/viajar/paragens/?t=detalhe&paragem=JAE2,True,bus
EDP1,EDP1,EDP,,41.145412648838,-8.57966752235841,PRT1,http://www.stcp.pt/pt/viajar/paragens/?t=detalhe&paragem=EDP1,True,bus
RNH1,RNH1,RANHA,,41.1768660831683,-8.5675233133519,PRT3,http://www.stcp.pt/pt/viajar/paragens/?t=detalhe&paragem=RNH1,True,bus
SP3,SP3,S. PEDRO,,41.1469394393652,-8.57331524969918,PRT3,http://www.stcp.pt/pt/viajar/paragens/?t=detalhe&paragem=SP3,True,bus
TRH1,TRH1,TORRINHA,,41.1532766433145,-8.62094038536173,PRT1,http://www.stcp.pt/pt/viajar/paragens/?t=detalhe&paragem=TRH1,True,bus
TRH2,TRH2,TORRINHA,,41.1531670193659,-8.62105631894748,PRT1,http://www.stcp.pt/pt/viajar/paragens/?t=detalhe&paragem=TRH2,True,bus
BVBR2,BVBR2,BOAVISTA BRASÍLIA,,41.1575866387239,-8.62667225845162,PRT1,http://www.stcp.pt/pt/viajar/paragens/?t=detalhe&paragem=BVBR2,True,bus
RA2,RA2,RAMADA ALTA,,41.1608030570271,-8.62121078757127,PRT1,http://www.stcp.pt/pt/viajar/paragens/?t=detalhe&paragem=RA2,True,bus
CDF1,CDF1,CEDOFEITA,,41.15509289926,-8.61864303435298,PRT1,http://www.stcp.pt/pt/viajar/paragens/?t=detalhe&paragem=CDF1,True,bus
CDF2,CDF2,CEDOFEITA,,41.1545297310713,-8.61892979230092,PRT1,http://www.stcp.pt/pt/viajar/paragens/?t=detalhe&paragem=CDF2,True,bus
LAPA2,LAPA2,LAPA,,41.1569648464133,-8.61299378827452,PRT1,http://www.stcp.pt/pt/viajar/paragens/?t=detalhe&paragem=LAPA2,True,bus
PRR7,PRR7,PR. DA REPÚBLICA,,41.1542209174861,-8.61393417585689,PRT1,http://www.stcp.pt/pt/viajar/paragens/?t=detalhe&paragem=PRR7,True,bus
BCM3,BCM3,BOAVISTA-CASA DA MÚSICA,,41.1594575409767,-8.628618576088,PRT1,http://www.stcp.pt/pt/viajar/paragens/?t=detalhe&paragem=BCM3,True,bus
BCM4,BCM4,BOAVISTA-CASA DA MÚSICA,,41.1589457579588,-8.63017784612816,PRT1,http://www.stcp.pt/pt/viajar/paragens/?t=detalhe&paragem=BCM4,True,bus
AQL2,AQL2,ANTERO DE QUENTAL,,41.1616201051046,-8.61097088960214,PRT1,http://www.stcp.pt/pt/viajar/paragens/?t=detalhe&paragem=AQL2,True,bus
CVI4,CVI4,CARVALHIDO,,41.1663199313993,-8.6264885528171,PRT1,http://www.stcp.pt/pt/viajar/paragens/?t=detalhe&paragem=CVI4,True,bus
SPTO1,SPTO1,SERPA PINTO,,41.1641263557511,-8.62194993392642,PRT1,http://www.stcp.pt/pt/viajar/paragens/?t=detalhe&paragem=SPTO1,True,bus
RA1,RA1,RAMADA ALTA,,41.1603055542089,-8.62208327081041,PRT1,http://www.stcp.pt/pt/viajar/paragens/?t=detalhe&paragem=RA1,True,bus
CZV3,CZV3,CRUZ VERMELHA,,41.159527837135,-8.62529360542566,PRT1,http://www.stcp.pt/pt/viajar/paragens/?t=detalhe&paragem=CZV3,True,bus
CZV4,CZV4,CRUZ VERMELHA,,41.1601798269341,-8.6237796530084,PRT1,http://www.stcp.pt/pt/viajar/paragens/?t=detalhe&paragem=CZV4,True,bus
HSM3,HSM3,HOSP. S.TA MARIA,,41.1603899766079,-8.61154716723056,PRT1,http://www.stcp.pt/pt/viajar/paragens/?t=detalhe&paragem=HSM3,True,bus
MRR2,MRR2,MARRACUENE,,41.1625667657911,-8.61975648036147,PRT1,http://www.stcp.pt/pt/viajar/paragens/?t=detalhe&paragem=MRR2,True,bus
AZV,AZV,AZEVEDO,,41.1516171981647,-8.56655738974504,PRT3,http://www.stcp.pt/pt/viajar/paragens/?t=detalhe&paragem=AZV,True,bus
BRB3,BRB3,BERNARDIM RIBEIRO,,41.1649086472962,-8.56603776443858,PRT3,http://www.stcp.pt/pt/viajar/paragens/?t=detalhe&paragem=BRB3,True,bus
ICAM1,ICAM1,IGREJA CAMPANHÃ,,41.1548613734712,-8.57416825128125,PRT3,http://www.stcp.pt/pt/viajar/paragens/?t=detalhe&paragem=ICAM1,True,bus
FMAG,FMAG,FERNÃO MAGALHÃES,,41.1686844464948,-8.5864500856501,PRT3,http://www.stcp.pt/pt/viajar/paragens/?t=detalhe&paragem=FMAG,True,bus
FRNS2,FRNS2,FORNOS,,41.1400888396869,-8.59176488961145,PRT1,http://www.stcp.pt/pt/viajar/paragens/?t=detalhe&paragem=FRNS2,True,bus
PTDM2,PTDM2,PTE.D.MARIA PIA,,41.1405332576366,-8.59670931028004,PRT1,http://www.stcp.pt/pt/viajar/paragens/?t=detalhe&paragem=PTDM2,True,bus
CMP4,CMP4,CAMPANHÃ,,41.1472422970396,-8.58732200676443,PRT1,http://www.stcp.pt/pt/viajar/paragens/?t=detalhe&paragem=CMP4,True,bus
SRC2,SRC2,SRA.CAMPANHÃ,,41.1665178371,-8.57522368859421,PRT3,http://www.stcp.pt/pt/viajar/paragens/?t=detalhe&paragem=SRC2,True,bus
PRF1,PRF1,PR. DAS FLORES,,41.1554999937793,-8.5900555244638,PRT1,http://www.stcp.pt/pt/viajar/paragens/?t=detalhe&paragem=PRF1,True,bus
TPR,TPR,TV. PRESA,,41.1680493367274,-8.57967860070231,PRT3,http://www.stcp.pt/pt/viajar/paragens/?t=detalhe&paragem=TPR,True,bus
VML,VML,VIELA MEIRAL,,41.1495696455093,-8.57106273457916,PRT3,http://www.stcp.pt/pt/viajar/paragens/?t=detalhe&paragem=VML,True,bus
VNFZ1,VNFZ1,VILA NOVA FOZ CÔA,,41.1618333479781,-8.56691666986763,PRT3,http://www.stcp.pt/pt/viajar/paragens/?t=detalhe&paragem=VNFZ1,True,bus
CNTM,CNTM,CONTUMIL (METRO),,41.1654384503787,-8.57958933549932,PRT3,http://www.stcp.pt/pt/viajar/paragens/?t=detalhe&paragem=CNTM,True,bus
CSS2,CSS2,CAPELA SRA. SAÚDE,,41.1470426577732,-8.5893255315226,PRT1,http://www.stcp.pt/pt/viajar/paragens/?t=detalhe&paragem=CSS2,True,bus
CHOL2,CHOL2,CHAVES OLIVEIRA,,41.1608093339871,-8.57769250335057,PRT3,http://www.stcp.pt/pt/viajar/paragens/?t=detalhe&paragem=CHOL2,True,bus
EDP2,EDP2,EDP,,41.1455203732953,-8.57975163709959,PRT1,http://www.stcp.pt/pt/viajar/paragens/?t=detalhe&paragem=EDP2,True,bus
CRJ1,CRJ1,CORUJEIRA,,41.1592845259,-8.58092164342542,PRT3,http://www.stcp.pt/pt/viajar/paragens/?t=detalhe&paragem=CRJ1,True,bus
CSC,CSC,C. SAÚDE CAMPANHÃ,,41.1570573045099,-8.58998189887633,PRT1,http://www.stcp.pt/pt/viajar/paragens/?t=detalhe&paragem=CSC,True,bus
RAZ,RAZ,R. AZEVEDO,,41.1518884281059,-8.57221838780191,PRT3,http://www.stcp.pt/pt/viajar/paragens/?t=detalhe&paragem=RAZ,True,bus
PREG,PREG,PESO DA RÉGUA,,41.1613055013164,-8.5695833540693,PRT3,http://www.stcp.pt/pt/viajar/paragens/?t=detalhe&paragem=PREG,True,bus
MPL3,MPL3,MARQUÊS,,41.1609599982982,-8.60405900922884,PRT1,http://www.stcp.pt/pt/viajar/paragens/?t=detalhe&paragem=MPL3,True,bus
MTT2,MTT2,MONTE TADEU,,41.1562057971703,-8.59925562544541,PRT1,http://www.stcp.pt/pt/viajar/paragens/?t=detalhe&paragem=MTT2,True,bus
CSS3,CSS3,CAPELA S.RA SAÚDE,,41.1474951196454,-8.58903146983092,PRT1,http://www.stcp.pt/pt/viajar/paragens/?t=detalhe&paragem=CSS3,True,bus
MPL1,MPL1,MARQUÊS,,41.1611090533618,-8.60398466000276,PRT1,http://www.stcp.pt/pt/viajar/paragens/?t=detalhe&paragem=MPL1,True,bus
SI2,SI2,STO. ISIDRO,,41.1583551982847,-8.60142721259772,PRT1,http://www.stcp.pt/pt/viajar/paragens/?t=detalhe&paragem=SI2,True,bus
DJOA4,DJOA4,D. JOÃO IV,,41.1489716624836,-8.60169381222657,PRT1,http://www.stcp.pt/pt/viajar/paragens/?t=detalhe&paragem=DJOA4,True,bus
AAL,AAL,AV.ALIADOS,,41.1479319922585,-8.61103766038429,PRT1,http://www.stcp.pt/pt/viajar/paragens/?t=detalhe&paragem=AAL,True,bus
FRX4,FRX4,FREIXO,,41.1465229754178,-8.57961908936269,PRT3,http://www.stcp.pt/pt/viajar/paragens/?t=detalhe&paragem=FRX4,True,bus
BSS3,BSS3,BESSA,,41.1603155941231,-8.64297734965846,PRT1,http://www.stcp.pt/pt/viajar/paragens/?t=detalhe&paragem=BSS3,True,bus
FOCO2,FOCO2,FOCO,,41.1611110785907,-8.64747220455906,PRT1,http://www.stcp.pt/pt/viajar/paragens/?t=detalhe&paragem=FOCO2,True,bus
CNT3,CNT3,CANTAREIRA,,41.1481111382884,-8.66522216437558,PRT2,http://www.stcp.pt/pt/viajar/paragens/?t=detalhe&paragem=CNT3,True,bus
FBC1,FBC1,FÁBRICA DO COBRE,,41.1692813105392,-8.57073806146323,PRT3,http://www.stcp.pt/pt/viajar/paragens/?t=detalhe&paragem=FBC1,True,bus
CPTO,CPTO,CERCO DO PORTO,,41.1598889053011,-8.57030558815635,PRT3,http://www.stcp.pt/pt/viajar/paragens/?t=detalhe&paragem=CPTO,True,bus
SAL1,SAL1,SALGUEIROS,,41.1696620173775,-8.598969320678,PRT1,http://www.stcp.pt/pt/viajar/paragens/?t=detalhe&paragem=SAL1,True,bus
ALFG2,ALFG2,ALFÂNDEGA,,41.143949847913,-8.62273725297333,PRT1,http://www.stcp.pt/pt/viajar/paragens/?t=detalhe&paragem=ALFG2,True,bus
BRRM2,BRRM2,BR. RAMALDE,,41.1702574011976,-8.64845846427482,PRT2,http://www.stcp.pt/pt/viajar/paragens/?t=detalhe&paragem=BRRM2,True,bus
SR4,SR4,S. ROQUE,,41.1664251680242,-8.56689067576674,PRT3,http://www.stcp.pt/pt/viajar/paragens/?t=detalhe&paragem=SR4,True,bus
GC12,GC12,GOMES COSTA 1,,41.1618941617648,-8.65601531286195,PRT2,http://www.stcp.pt/pt/viajar/paragens/?t=detalhe&paragem=GC12,True,bus
PJUV1,PJUV1,POUSADA JUVENTUDE,,41.1486589048126,-8.65995638144977,PRT2,http://www.stcp.pt/pt/viajar/paragens/?t=detalhe&paragem=PJUV1,True,bus
CRVH2,CRVH2,CORDOARIA VELHA,,41.1480459190228,-8.65043651505495,PRT2,http://www.stcp.pt/pt/viajar/paragens/?t=detalhe&paragem=CRVH2,True,bus
TRR3,TRR3,TORRES,,41.1507490256456,-8.66461931786799,PRT2,http://www.stcp.pt/pt/viajar/paragens/?t=detalhe&paragem=TRR3,True,bus
ALX2,ALX2,ALEIXO,,41.1516889163678,-8.64938389181503,PRT2,http://www.stcp.pt/pt/viajar/paragens/?t=detalhe&paragem=ALX2,True,bus
DJ31,DJ31,D.JOÃO III,,41.1572650842384,-8.66125161322375,PRT2,http://www.stcp.pt/pt/viajar/paragens/?t=detalhe&paragem=DJ31,True,bus
ALX1,ALX1,ALEIXO,,41.1525703035429,-8.64949303570612,PRT2,http://www.stcp.pt/pt/viajar/paragens/?t=detalhe&paragem=ALX1,True,bus
FLU1,FLU1,FLUVIAL,,41.1487094086058,-8.65289888621767,PRT2,http://www.stcp.pt/pt/viajar/paragens/?t=detalhe&paragem=FLU1,True,bus
MRG1,MRG1,MIRAGAIA,,41.1414927165729,-8.61850233004762,PRT1,http://www.stcp.pt/pt/viajar/paragens/?t=detalhe&paragem=MRG1,True,bus
MRG2,MRG2,MIRAGAIA,,41.1416720217297,-8.61907050006626,PRT1,http://www.stcp.pt/pt/viajar/paragens/?t=detalhe&paragem=MRG2,True,bus
ALFG1,ALFG1,ALFÂNDEGA,,41.1438423528567,-8.6219720971298,PRT1,http://www.stcp.pt/pt/viajar/paragens/?t=detalhe&paragem=ALFG1,True,bus
VTO4,VTO4,VIRIATO,,41.1459999840936,-8.62069442125385,PRT1,http://www.stcp.pt/pt/viajar/paragens/?t=detalhe&paragem=VTO4,True,bus
HSA1,HSA1,HOSP. STO. ANTÓNIO,,41.1466583373693,-8.62023665157776,PRT1,http://www.stcp.pt/pt/viajar/paragens/?t=detalhe&paragem=HSA1,True,bus
PAL5,PAL5,PALÁCIO,,41.1484202702066,-8.62497720951777,PRT1,http://www.stcp.pt/pt/viajar/paragens/?t=detalhe&paragem=PAL5,True,bus
PAL4,PAL4,PALÁCIO,,41.1483368190521,-8.62474143733427,PRT1,http://www.stcp.pt/pt/viajar/paragens/?t=detalhe&paragem=PAL4,True,bus
JM2,JM2,JUNTA MASSARELOS,,41.1525277785088,-8.63030556121167,PRT1,http://www.stcp.pt/pt/viajar/paragens/?t=detalhe&paragem=JM2,True,bus
PRG3,PRG3,PR. DA GALIZA,,41.1525887273639,-8.62690403352945,PRT1,http://www.stcp.pt/pt/viajar/paragens/?t=detalhe&paragem=PRG3,True,bus
PAL2,PAL2,PALÁCIO,,41.149144992326,-8.62544722066525,PRT1,http://www.stcp.pt/pt/viajar/paragens/?t=detalhe&paragem=PAL2,True,bus
PAL3,PAL3,PALÁCIO,,41.1495118251151,-8.62553157155577,PRT1,http://www.stcp.pt/pt/viajar/paragens/?t=detalhe&paragem=PAL3,True,bus
BIC2,BIC2,BICALHO,,41.1482913506215,-8.63657419998632,PRT1,http://www.stcp.pt/pt/viajar/paragens/?t=detalhe&paragem=BIC2,True,bus
GGT1,GGT1,GÓLGOTA,,41.1526388557557,-8.63369445588376,PRT1,http://www.stcp.pt/pt/viajar/paragens/?t=detalhe&paragem=GGT1,True,bus
GGT2,GGT2,GÓLGOTA,,41.1524444387637,-8.634111118052,PRT1,http://www.stcp.pt/pt/viajar/paragens/?t=detalhe&paragem=GGT2,True,bus
PRG6,PRG6,PR. DA GALIZA,,41.1523797354597,-8.62686279145699,PRT1,http://www.stcp.pt/pt/viajar/paragens/?t=detalhe&paragem=PRG6,True,bus
PRG1,PRG1,PR. DA GALIZA,,41.1534444227942,-8.62633327866578,PRT1,http://www.stcp.pt/pt/viajar/paragens/?t=detalhe&paragem=PRG1,True,bus
JM1,JM1,JUNTA MASSARELOS,,41.1526941731599,-8.63122138218141,PRT1,http://www.stcp.pt/pt/viajar/paragens/?t=detalhe&paragem=JM1,True,bus
MCE2,MCE2,MUSEU C. ELÉCTRICO,,41.1465263768996,-8.63218781651207,PRT1,http://www.stcp.pt/pt/viajar/paragens/?t=detalhe&paragem=MCE2,True,bus
PARR2,PARR2,PONTE DA ARRÁBIDA,,41.1484393045418,-8.64093008648626,PRT1,http://www.stcp.pt/pt/viajar/paragens/?t=detalhe&paragem=PARR2,True,bus
BVCM3,BVCM3,BOAVISTA CEMITÉRIO,,41.1571636941751,-8.62999767663858,PRT1,http://www.stcp.pt/pt/viajar/paragens/?t=detalhe&paragem=BVCM3,True,bus
BIC1,BIC1,BICALHO,,41.1485162742235,-8.63694472753747,PRT1,http://www.stcp.pt/pt/viajar/paragens/?t=detalhe&paragem=BIC1,True,bus
CVA2,CVA2,CARVALHOSA,,41.1561139084533,-8.62072319911182,PRT1,http://www.stcp.pt/pt/viajar/paragens/?t=detalhe&paragem=CVA2,True,bus
BS1,BS1,BOAVISTA - B.SUCESSO,,41.156403474422,-8.62792954663119,PRT1,http://www.stcp.pt/pt/viajar/paragens/?t=detalhe&paragem=BS1,True,bus
BS2,BS2,BOAVISTA - B.SUCESSO,,41.1553009155342,-8.62826100753222,PRT1,http://www.stcp.pt/pt/viajar/paragens/?t=detalhe&paragem=BS2,True,bus
MOR2,MOR2,MOREIRA,,41.1530123963472,-8.60229543690604,PRT1,http://www.stcp.pt/pt/viajar/paragens/?t=detalhe&paragem=MOR2,True,bus
MOR3,MOR3,MOREIRA,,41.1537275337592,-8.59977042517573,PRT1,http://www.stcp.pt/pt/viajar/paragens/?t=detalhe&paragem=MOR3,True,bus
MPL2,MPL2,MARQUÊS,,41.1608022827448,-8.60413734687805,PRT1,http://www.stcp.pt/pt/viajar/paragens/?t=detalhe&paragem=MPL2,True,bus
COMB1,COMB1,COMBATENTES,,41.1646326910072,-8.60036700377321,PRT1,http://www.stcp.pt/pt/viajar/paragens/?t=detalhe&paragem=COMB1,True,bus
DAM,DAM,D.AMÉLIA,,41.1577384457354,-8.59898117319338,PRT1,http://www.stcp.pt/pt/viajar/paragens/?t=detalhe&paragem=DAM,True,bus
MFZ2,MFZ2,MERCADO DA FOZ,,41.1540205831205,-8.67391441127182,PRT2,http://www.stcp.pt/pt/viajar/paragens/?t=detalhe&paragem=MFZ2,True,bus
PRI1,PRI1,PR. DO IMPÉRIO,,41.155866253417,-8.67134866018696,PRT2,http://www.stcp.pt/pt/viajar/paragens/?t=detalhe&paragem=PRI1,True,bus
PRI4,PRI4,PR. DO IMPÉRIO,,41.1556162853074,-8.67129311924875,PRT2,http://www.stcp.pt/pt/viajar/paragens/?t=detalhe&paragem=PRI4,True,bus
DL1,DL1,D. LEONOR,,41.1470002872842,-8.65970781385828,PRT2,http://www.stcp.pt/pt/viajar/paragens/?t=detalhe&paragem=DL1,True,bus
CNT1,CNT1,CANTAREIRA,,41.1480577804287,-8.66455238837051,PRT2,http://www.stcp.pt/pt/viajar/paragens/?t=detalhe&paragem=CNT1,True,bus
MFZ1,MFZ1,MERCADO DA FOZ,,41.155047505215,-8.67334280576561,PRT2,http://www.stcp.pt/pt/viajar/paragens/?t=detalhe&paragem=MFZ1,True,bus
IFOZ1,IFOZ1,IGREJA DA FOZ,,41.1483982376013,-8.66941675479297,PRT2,http://www.stcp.pt/pt/viajar/paragens/?t=detalhe&paragem=IFOZ1,True,bus
SRLZ1,SRLZ1,SENHORA DA LUZ,,41.1500328932095,-8.67587643762635,PRT2,http://www.stcp.pt/pt/viajar/paragens/?t=detalhe&paragem=SRLZ1,True,bus
DL2,DL2,D. LEONOR,,41.1472440994815,-8.66020399793129,PRT2,http://www.stcp.pt/pt/viajar/paragens/?t=detalhe&paragem=DL2,True,bus
CNT2,CNT2,CANTAREIRA,,41.1481360444414,-8.66530765727305,PRT2,http://www.stcp.pt/pt/viajar/paragens/?t=detalhe&paragem=CNT2,True,bus
PING1,PING1,PRAIA DOS INGLESES,,41.1516235147649,-8.67690110011498,PRT2,http://www.stcp.pt/pt/viajar/paragens/?t=detalhe&paragem=PING1,True,bus
PLUZ1,PLUZ1,PRAIA DA LUZ,,41.1536263968819,-8.67878721853992,PRT2,http://www.stcp.pt/pt/viajar/paragens/?t=detalhe&paragem=PLUZ1,True,bus
PRDR2,PRDR2,PRADO REPOUSO,,41.1459526583603,-8.5966446581527,PRT1,http://www.stcp.pt/pt/viajar/paragens/?t=detalhe&paragem=PRDR2,True,bus
SCR4,SCR4,S. CRISPIM,,41.1606628532816,-8.59285562788599,PRT1,http://www.stcp.pt/pt/viajar/paragens/?t=detalhe&paragem=SCR4,True,bus
MPL4,MPL4,MARQUÊS,,41.161357793076,-8.6048085503574,PRT1,http://www.stcp.pt/pt/viajar/paragens/?t=detalhe&paragem=MPL4,True,bus
BL1,BL1,BARROS LIMA,,41.1544221918691,-8.59532061714942,PRT1,http://www.stcp.pt/pt/viajar/paragens/?t=detalhe&paragem=BL1,True,bus
DCAS1,DCAS1,DOZE CASAS,,41.1590806630085,-8.60457772791621,PRT1,http://www.stcp.pt/pt/viajar/paragens/?t=detalhe&paragem=DCAS1,True,bus
DC2,DC2,DIOGO CÃO,,41.1659201357315,-8.59223330715016,PRT1,http://www.stcp.pt/pt/viajar/paragens/?t=detalhe&paragem=DC2,True,bus
PBSS2,PBSS2,PINTO BESSA,,41.1489289229543,-8.58833717126174,PRT1,http://www.stcp.pt/pt/viajar/paragens/?t=detalhe&paragem=PBSS2,True,bus
HER2,HER2,HEROISMO,,41.1465096843364,-8.59296448280582,PRT1,http://www.stcp.pt/pt/viajar/paragens/?t=detalhe&paragem=HER2,True,bus
SLZ3,SLZ3,S. LÁZARO,,41.1458008327667,-8.6013337214031,PRT1,http://www.stcp.pt/pt/viajar/paragens/?t=detalhe&paragem=SLZ3,True,bus
PRF2,PRF2,PR. DAS FLORES,,41.155749946845,-8.59163890897065,PRT1,http://www.stcp.pt/pt/viajar/paragens/?t=detalhe&paragem=PRF2,True,bus
ESCN1,ESCN1,ESCOLA NORMAL,,41.1553610799353,-8.60277780513672,PRT1,http://www.stcp.pt/pt/viajar/paragens/?t=detalhe&paragem=ESCN1,True,bus
MCAM2,MCAM2,MONTE CAMPANHÃ,,41.157002595512,-8.57463536706399,PRT3,http://www.stcp.pt/pt/viajar/paragens/?t=detalhe&paragem=MCAM2,True,bus
CPL1,CPL1,CAMPO LINDO,,41.1672599428658,-8.61076995788132,PRT1,http://www.stcp.pt/pt/viajar/paragens/?t=detalhe&paragem=CPL1,True,bus
MLAR1,MLAR1,MANUEL LARANJEIRA,,41.1731640426379,-8.59872368328375,PRT3,http://www.stcp.pt/pt/viajar/paragens/?t=detalhe&paragem=MLAR1,True,bus
NDA2,NDA2,NOEDA,,41.1458516891985,-8.58363665180338,PRT1,http://www.stcp.pt/pt/viajar/paragens/?t=detalhe&paragem=NDA2,True,bus
JRC3,JRC3,JOÃO R.CABRILHO,,41.1553055786091,-8.66072226033176,PRT2,http://www.stcp.pt/pt/viajar/paragens/?t=detalhe&paragem=JRC3,True,bus
SMAI2,SMAI2,SALGUEIRO MAIA,,41.1483888917069,-8.63169439349687,PRT1,http://www.stcp.pt/pt/viajar/paragens/?t=detalhe&paragem=SMAI2,True,bus
HPRL1,HPRL1,HOSP. PRELADA,,41.1693205099808,-8.62556391256732,PRT1,http://www.stcp.pt/pt/viajar/paragens/?t=detalhe&paragem=HPRL1,True,bus
QTL1,QTL1,QUARTEL MILITAR,,41.1824990936919,-8.63883268993209,PRT2,http://www.stcp.pt/pt/viajar/paragens/?t=detalhe&paragem=QTL1,True,bus
BLRB4,BLRB4,BOLHÃO,,41.1509758733737,-8.60699735390389,PRT1,http://www.stcp.pt/pt/viajar/paragens/?t=detalhe&paragem=BLRB4,True,bus
BSEE2,BSEE2,BR.STO.EUGÉNIO (ESCOLA),,41.1790876474598,-8.6373819732689,PRT2,http://www.stcp.pt/pt/viajar/paragens/?t=detalhe&paragem=BSEE2,True,bus
BS6,BS6,BOAVISTA - B. SUCESSO,,41.1558221345343,-8.62835333783781,PRT1,http://www.stcp.pt/pt/viajar/paragens/?t=detalhe&paragem=BS6,True,bus
C24A2,C24A2,CAMPO 24 DE AGOSTO,,41.1486208369036,-8.5977740782175,PRT1,http://www.stcp.pt/pt/viajar/paragens/?t=detalhe&paragem=C24A2,True,bus
CPU1,CPU1,CAPUCHINHOS,,41.182237393897,-8.61808082455031,PRT2,http://www.stcp.pt/pt/viajar/paragens/?t=detalhe&paragem=CPU1,True,bus
DQL1,DQL1,DUQUE LOULÉ,,41.1455321861289,-8.60361611371884,PRT1,http://www.stcp.pt/pt/viajar/paragens/?t=detalhe&paragem=DQL1,True,bus
JPAZ1,JPAZ1,JULGADO DE PAZ,,41.17577772978,-8.64466664303995,PRT2,http://www.stcp.pt/pt/viajar/paragens/?t=detalhe&paragem=JPAZ1,True,bus
PUNV,PUNV,PÓLO UNIVERSITÁRIO (METRO),,41.1763856100317,-8.60351239975616,PRT3,http://www.stcp.pt/pt/viajar/paragens/?t=detalhe&paragem=PUNV,True,bus
FEUP1,FEUP1,FACULDADE DE ENGENHARIA,,41.1791344315331,-8.59849136642027,PRT3,http://www.stcp.pt/pt/viajar/paragens/?t=detalhe&paragem=FEUP1,True,bus
FEUP2,FEUP2,FACULDADE DE ENGENHARIA,,41.1790833201085,-8.5987499771748,PRT3,http://www.stcp.pt/pt/viajar/paragens/?t=detalhe&paragem=FEUP2,True,bus
SJBC1,SJBC1,S.JOÃO BOSCO,,41.1660897361696,-8.6478274608317,PRT2,http://www.stcp.pt/pt/viajar/paragens/?t=detalhe&paragem=SJBC1,True,bus
SJBC2,SJBC2,S.JOÃO BOSCO,,41.1660026784484,-8.64800538988922,PRT2,http://www.stcp.pt/pt/viajar/paragens/?t=detalhe&paragem=SJBC2,True,bus
AZV2,AZV2,AZEVEDO,,41.1517777397172,-8.56708333003631,PRT3,http://www.stcp.pt/pt/viajar/paragens/?t=detalhe&paragem=AZV2,True,bus
MLH5,MLH5,MOLHE,,41.1600004000265,-8.68162790785629,PRT2,http://www.stcp.pt/pt/viajar/paragens/?t=detalhe&paragem=MLH5,True,bus
RFAR1,RFAR1,FOZ,,41.152731792982,-8.67729340012587,PRT2,http://www.stcp.pt/pt/viajar/paragens/?t=detalhe&paragem=RFAR1,True,bus
PASS3,PASS3,PASSEIO ALEGRE,,41.1491439635298,-8.67209394987773,PRT2,http://www.stcp.pt/pt/viajar/paragens/?t=detalhe&paragem=PASS3,True,bus
PASS4,PASS4,PASSEIO ALEGRE,,41.1489912195723,-8.67163967085298,PRT2,http://www.stcp.pt/pt/viajar/paragens/?t=detalhe&paragem=PASS4,True,bus
PVC1,PVC1,PÊRO VAZ CAMINHA,,41.1572273875454,-8.6679042193105,PRT2,http://www.stcp.pt/pt/viajar/paragens/?t=detalhe&paragem=PVC1,True,bus
STLN1,STLN1,STA. LUZIA (NORTE),,41.1796443826163,-8.62434868951143,PRT2,http://www.stcp.pt/pt/viajar/paragens/?t=detalhe&paragem=STLN1,True,bus
ASP2,ASP2,ALBERTO SAMPAIO,,41.1783110179311,-8.6273765089751,PRT2,http://www.stcp.pt/pt/viajar/paragens/?t=detalhe&paragem=ASP2,True,bus
MLAM3,MLAM3,MARIA LAMAS,,41.1696998849824,-8.6340152589153,PRT1,http://www.stcp.pt/pt/viajar/paragens/?t=detalhe&paragem=MLAM3,True,bus
SRVM4,SRVM4,SERRALVES (MUSEU),,41.1597830226672,-8.66062647528,PRT2,http://www.stcp.pt/pt/viajar/paragens/?t=detalhe&paragem=SRVM4,True,bus
1CAM1,1CAM1,CARLOS AMARANTE,,41.1756517501518,-8.6141927778552,PRT3,http://www.stcp.pt/pt/viajar/paragens/?t=detalhe&paragem=1CAM1,True,bus
MCBL3,MCBL3,MERCADO DO BOLHÃO,,41.1492570813036,-8.60770910036793,PRT1,http://www.stcp.pt/pt/viajar/paragens/?t=detalhe&paragem=MCBL3,True,bus
IANT3,IANT3,IGREJA DAS ANTAS,,41.1636281182807,-8.58888262081722,PRT1,http://www.stcp.pt/pt/viajar/paragens/?t=detalhe&paragem=IANT3,True,bus
STP1,STP1,SANTOS POUSADA,,41.1532499566326,-8.60027774459115,PRT1,http://www.stcp.pt/pt/viajar/paragens/?t=detalhe&paragem=STP1,True,bus
GCRT3,GCRT3,GONÇALO CRISTÓVÃO,,41.1550245532024,-8.6099572860598,PRT1,http://www.stcp.pt/pt/viajar/paragens/?t=detalhe&paragem=GCRT3,True,bus
PRSM3,PRSM3,PARAÍSO (METRO),,41.1576630690436,-8.60989305846821,PRT1,http://www.stcp.pt/pt/viajar/paragens/?t=detalhe&paragem=PRSM3,True,bus
FCUP1,FCUP1,FACULDADE DE CIÊNCIAS,,41.1538376681773,-8.6413089854877,PRT1,http://www.stcp.pt/pt/viajar/paragens/?t=detalhe&paragem=FCUP1,True,bus
FCUP2,FCUP2,FACULDADE DE CIÊNCIAS,,41.1536144951703,-8.64103456565671,PRT1,http://www.stcp.pt/pt/viajar/paragens/?t=detalhe&paragem=FCUP2,True,bus
HSA6,HSA6,R.RESTAURAÇÃO,,41.1459220264334,-8.62062618349244,PRT1,http://www.stcp.pt/pt/viajar/paragens/?t=detalhe&paragem=HSA6,True,bus
ANT2,ANT2,ANTAS (L. CIDADÃO),,41.1649271601554,-8.58917808709332,PRT1,http://www.stcp.pt/pt/viajar/paragens/?t=detalhe&paragem=ANT2,True,bus
CRT,CRT,CARTES,,41.1620832853737,-8.57530556423197,PRT3,http://www.stcp.pt/pt/viajar/paragens/?t=detalhe&paragem=CRT,True,bus
HER1,HER1,HEROISMO,,41.1465004371053,-8.59223719745347,PRT1,http://www.stcp.pt/pt/viajar/paragens/?t=detalhe&paragem=HER1,True,bus
RBRI2,RBRI2,RIBEIRA (INFANTE),,41.1405331519631,-8.61668169958564,PRT1,http://www.stcp.pt/pt/viajar/paragens/?t=detalhe&paragem=RBRI2,True,bus
BFM2,BFM2,BONFIM,,41.1504444174737,-8.59474998856181,PRT1,http://www.stcp.pt/pt/viajar/paragens/?t=detalhe&paragem=BFM2,True,bus
BFM8,BFM8,BONFIM,,41.1514778185856,-8.59426156525101,PRT1,http://www.stcp.pt/pt/viajar/paragens/?t=detalhe&paragem=BFM8,True,bus
BL2,BL2,BARROS LIMA,,41.1551019069059,-8.59543679464357,PRT1,http://www.stcp.pt/pt/viajar/paragens/?t=detalhe&paragem=BL2,True,bus
AUS,AUS,ESC. AURÉLIA SOUSA,,41.1604215097422,-8.60058364507516,PRT1,http://www.stcp.pt/pt/viajar/paragens/?t=detalhe&paragem=AUS,True,bus
FTNH1,FTNH1,FONTINHA,,41.1561093438492,-8.60455638317081,PRT1,http://www.stcp.pt/pt/viajar/paragens/?t=detalhe&paragem=FTNH1,True,bus
BFTM1,BFTM1,BR. FONTE DA MOURA,,41.1710217072126,-8.65798214411239,PRT2,http://www.stcp.pt/pt/viajar/paragens/?t=detalhe&paragem=BFTM1,True,bus
PQC2,PQC2,PARQUE DA CIDADE,,41.1714420475877,-8.67819068762483,PRT2,http://www.stcp.pt/pt/viajar/paragens/?t=detalhe&paragem=PQC2,True,bus
ALD2,ALD2,ALDOAR JUNTA  FREG.,,41.1708471737804,-8.67051619415203,PRT2,http://www.stcp.pt/pt/viajar/paragens/?t=detalhe&paragem=ALD2,True,bus
REAL2,REAL2,REAL,,41.1762398632315,-8.66963642060265,PRT2,http://www.stcp.pt/pt/viajar/paragens/?t=detalhe&paragem=REAL2,True,bus
VLRA3,VLRA3,VILARINHA,,41.1719444343037,-8.6729166977641,PRT2,http://www.stcp.pt/pt/viajar/paragens/?t=detalhe&paragem=VLRA3,True,bus
ELVG1,ELVG1,ELEVADOR GUINDAIS,,41.1411195006185,-8.61054713593278,PRT1,http://www.stcp.pt/pt/viajar/paragens/?t=detalhe&paragem=ELVG1,True,bus
ELVG2,ELVG2,ELEVADOR GUINDAIS,,41.1412720739477,-8.61066735453043,PRT1,http://www.stcp.pt/pt/viajar/paragens/?t=detalhe&paragem=ELVG2,True,bus
PRL8,PRL8,PR. DA LIBERDADE,,41.1459510559073,-8.61198809525164,PRT1,http://www.stcp.pt/pt/viajar/paragens/?t=detalhe&paragem=PRL8,True,bus
PRR3,PRR3,PR. DA REPÚBLICA,,41.1552678583988,-8.61162265029952,PRT1,http://www.stcp.pt/pt/viajar/paragens/?t=detalhe&paragem=PRR3,True,bus
BTLH1,BTLH1,BATALHA,,41.145083316354,-8.60716661149907,PRT1,http://www.stcp.pt/pt/viajar/paragens/?t=detalhe&paragem=BTLH1,True,bus
MPL11,MPL11,MARQUÊS,,41.160711869173,-8.60600321642519,PRT1,http://www.stcp.pt/pt/viajar/paragens/?t=detalhe&paragem=MPL11,True,bus
PRDJ1,PRDJ1,PR. D. JOÃO I,,41.1480419423716,-8.608387290426,PRT1,http://www.stcp.pt/pt/viajar/paragens/?t=detalhe&paragem=PRDJ1,True,bus
GCRT2,GCRT2,GONÇALO CRISTÓVÃO,,41.154420642738,-8.61010777189339,PRT1,http://www.stcp.pt/pt/viajar/paragens/?t=detalhe&paragem=GCRT2,True,bus
BTLH5,BTLH5,BATALHA,,41.1437222121175,-8.60408329160133,PRT1,http://www.stcp.pt/pt/viajar/paragens/?t=detalhe&paragem=BTLH5,True,bus
MPL9,MPL9,MARQUÊS,,41.1614866821115,-8.60473346172423,PRT1,http://www.stcp.pt/pt/viajar/paragens/?t=detalhe&paragem=MPL9,True,bus
BLRB2,BLRB2,BOLHÃO,,41.1516718213899,-8.60719191085997,PRT1,http://www.stcp.pt/pt/viajar/paragens/?t=detalhe&paragem=BLRB2,True,bus
FSTO1,FSTO1,FERR. DOS SANTOS,,41.1597222011059,-8.57747222902949,PRT3,http://www.stcp.pt/pt/viajar/paragens/?t=detalhe&paragem=FSTO1,True,bus
ETRP2,ETRP2,EDIF. TRANSPARENTE,,41.1717924389624,-8.68776250176329,PRT2,http://www.stcp.pt/pt/viajar/paragens/?t=detalhe&paragem=ETRP2,True,bus
HSJ2,HSJ2,HOSP. S. JOÃO (METRO),,41.1833280866179,-8.60242469540698,PRT3,http://www.stcp.pt/pt/viajar/paragens/?t=detalhe&paragem=HSJ2,True,bus
CMS2,CMS2,CASA DA MÚSICA (METRO),,41.16121655745,-8.6299658086002,PRT1,http://www.stcp.pt/pt/viajar/paragens/?t=detalhe&paragem=CMS2,True,bus
CMS4,CMS4,CASA DA MÚSICA (METRO),,41.1611021995597,-8.62969591298862,PRT1,http://www.stcp.pt/pt/viajar/paragens/?t=detalhe&paragem=CMS4,True,bus
CMS5,CMS5,CASA DA MÚSICA (METRO),,41.1612789821722,-8.62985583329822,PRT1,http://www.stcp.pt/pt/viajar/paragens/?t=detalhe&paragem=CMS5,True,bus
ESED2,ESED2,ESC. SUP. EDUCAÇÃO,,41.1813889166248,-8.59766665655445,PRT3,http://www.stcp.pt/pt/viajar/paragens/?t=detalhe&paragem=ESED2,True,bus
BCM2,BCM2,BOAVISTA-CASA DA MÚSICA,,41.1597725544825,-8.62852468697102,PRT1,http://www.stcp.pt/pt/viajar/paragens/?t=detalhe&paragem=BCM2,True,bus
CSBV,CSBV,CASA DE SAÚDE DA BOAVISTA,,41.16447896729,-8.63210842357714,PRT1,http://www.stcp.pt/pt/viajar/paragens/?t=detalhe&paragem=CSBV,True,bus
CSBV1,CSBV1,CASA DE SAÚDE DA BOAVISTA,,41.1651372197019,-8.6309777865394,PRT1,http://www.stcp.pt/pt/viajar/paragens/?t=detalhe&paragem=CSBV1,True,bus
HSA,HSA,HOSP.STO. ANTÓNIO,,41.1464877083962,-8.62034235435485,PRT1,http://www.stcp.pt/pt/viajar/paragens/?t=detalhe&paragem=HSA,True,bus
DSQ,DSQ,DOMINGOS SEQUEIRA,,41.1628648083021,-8.63141617010889,PRT1,http://www.stcp.pt/pt/viajar/paragens/?t=detalhe&paragem=DSQ,True,bus
CVI6,CVI6,CARVALHIDO,,41.1665887866509,-8.6270152144763,PRT1,http://www.stcp.pt/pt/viajar/paragens/?t=detalhe&paragem=CVI6,True,bus
ESR1,ESR1,ESC.SOARES DOS REIS,,41.1580611111064,-8.59354282698459,PRT1,http://www.stcp.pt/pt/viajar/paragens/?t=detalhe&paragem=ESR1,True,bus
INSA1,INSA1,IGREJA N.SRA DA AJUDA,,41.1531665240296,-8.65934817160244,PRT2,http://www.stcp.pt/pt/viajar/paragens/?t=detalhe&paragem=INSA1,True,bus
INSA2,INSA2,IGREJA N.SRA DA AJUDA,,41.1534667457696,-8.65906847497274,PRT2,http://www.stcp.pt/pt/viajar/paragens/?t=detalhe&paragem=INSA2,True,bus
ABVT1,ABVT1,AV.DA BOAVISTA,,41.1627999894611,-8.66342341982453,PRT2,http://www.stcp.pt/pt/viajar/paragens/?t=detalhe&paragem=ABVT1,True,bus
ABVT2,ABVT2,AV.DA BOAVISTA,,41.1629721782296,-8.66322225860359,PRT2,http://www.stcp.pt/pt/viajar/paragens/?t=detalhe&paragem=ABVT2,True,bus
ALXH3,ALXH3,ALEX. HERCULANO,,41.1442427332737,-8.60525018060673,PRT1,http://www.stcp.pt/pt/viajar/paragens/?t=detalhe&paragem=ALXH3,True,bus
QBNJ2,QBNJ2,QUINTA DE BONJÓIA,,41.1528339625569,-8.57688271098788,PRT3,http://www.stcp.pt/pt/viajar/paragens/?t=detalhe&paragem=QBNJ2,True,bus
TBNJ2,TBNJ2,TRAVESSA DE BONJÓIA,,41.1526695827903,-8.57980028569838,PRT3,http://www.stcp.pt/pt/viajar/paragens/?t=detalhe&paragem=TBNJ2,True,bus
PINC2,PINC2,PINHEIRO DE CAMPANHÃ,,41.1516350447375,-8.58186607499824,PRT1,http://www.stcp.pt/pt/viajar/paragens/?t=detalhe&paragem=PINC2,True,bus
RBR2,RBR2,RIBEIRA,,41.1412184432508,-8.61426370642136,PRT1,http://www.stcp.pt/pt/viajar/paragens/?t=detalhe&paragem=RBR2,True,bus
GRJ,GRJ,GUERRA JUNQUEIRO,,41.1558382701885,-8.63731484377377,PRT1,http://www.stcp.pt/pt/viajar/paragens/?t=detalhe&paragem=GRJ,True,bus
GGF1,GGF1,GUILHERME GOMES FERNANDES,,41.1476664237371,-8.614668676816,PRT1,http://www.stcp.pt/pt/viajar/paragens/?t=detalhe&paragem=GGF1,True,bus
HSM2,HSM2,HOSP. STA. MARIA,,41.1601662272598,-8.60989932960432,PRT1,http://www.stcp.pt/pt/viajar/paragens/?t=detalhe&paragem=HSM2,True,bus
LUG2,LUG2,LUGARINHO,,41.1674776706159,-8.6317097701762,PRT1,http://www.stcp.pt/pt/viajar/paragens/?t=detalhe&paragem=LUG2,True,bus
SRVM5,SRVM5,SERRALVES (MUSEU),,41.1594967680027,-8.66009863857727,PRT2,http://www.stcp.pt/pt/viajar/paragens/?t=detalhe&paragem=SRVM5,True,bus
VENZ1,VENZ1,VENEZUELA,,41.1574219989197,-8.6430152766801,PRT1,http://www.stcp.pt/pt/viajar/paragens/?t=detalhe&paragem=VENZ1,True,bus
VENZ2,VENZ2,VENEZUELA,,41.1573109003655,-8.64315416290276,PRT1,http://www.stcp.pt/pt/viajar/paragens/?t=detalhe&paragem=VENZ2,True,bus
BS10,BS10,BOAVISTA (BOM SUCESSO),,41.1560609214012,-8.62862629311067,PRT1,http://www.stcp.pt/pt/viajar/paragens/?t=detalhe&paragem=BS10,True,bus
LME1,LME1,LOPES DE MENDONÇA,,41.1565277455599,-8.66394448803643,PRT2,http://www.stcp.pt/pt/viajar/paragens/?t=detalhe&paragem=LME1,True,bus
VIS1,VIS1,VISO (METRO),,41.1786603631807,-8.64532898484229,PRT2,http://www.stcp.pt/pt/viajar/paragens/?t=detalhe&paragem=VIS1,True,bus
VIS2,VIS2,VISO (METRO),,41.1780891632538,-8.64661388889731,PRT2,http://www.stcp.pt/pt/viajar/paragens/?t=detalhe&paragem=VIS2,True,bus
VIS3,VIS3,VISO,,41.1778055325872,-8.64222219925433,PRT2,http://www.stcp.pt/pt/viajar/paragens/?t=detalhe&paragem=VIS3,True,bus
HPRL2,HPRL2,HOSP. PRELADA,,41.1700987281486,-8.62592521262739,PRT1,http://www.stcp.pt/pt/viajar/paragens/?t=detalhe&paragem=HPRL2,True,bus
VLRA4,VLRA4,VILARINHA,,41.1718248462363,-8.67299591167977,PRT2,http://www.stcp.pt/pt/viajar/paragens/?t=detalhe&paragem=VLRA4,True,bus
UFP2,UFP2,UNIV. F. PESSOA,,41.1728240042134,-8.60984260176804,PRT3,http://www.stcp.pt/pt/viajar/paragens/?t=detalhe&paragem=UFP2,True,bus
CPSF1,CPSF1,CAPELA SRA.FÁTIMA,,41.1750277977588,-8.6194444529488,PRT2,http://www.stcp.pt/pt/viajar/paragens/?t=detalhe&paragem=CPSF1,True,bus
IPRN1,IPRN1,IGREJA DE PARANHOS,,41.1741286245383,-8.60583382917094,PRT3,http://www.stcp.pt/pt/viajar/paragens/?t=detalhe&paragem=IPRN1,True,bus
PRDR1,PRDR1,PRADO REPOUSO,,41.1460628236179,-8.59674561423095,PRT1,http://www.stcp.pt/pt/viajar/paragens/?t=detalhe&paragem=PRDR1,True,bus
GND1,GND1,GUINDAIS,,41.1417319360918,-8.6059392848666,PRT1,http://www.stcp.pt/pt/viajar/paragens/?t=detalhe&paragem=GND1,True,bus
NEV2,NEV2,NEVOGILDE,,41.1662469368935,-8.67808295756039,PRT2,http://www.stcp.pt/pt/viajar/paragens/?t=detalhe&paragem=NEV2,True,bus
MS1,MS1,MOUZINHO SILVEIRA,,41.1435833265365,-8.61297221493401,PRT1,http://www.stcp.pt/pt/viajar/paragens/?t=detalhe&paragem=MS1,True,bus
NEV3,NEV3,NEVOGILDE,,41.1659171128832,-8.67764578414837,PRT2,http://www.stcp.pt/pt/viajar/paragens/?t=detalhe&paragem=NEV3,True,bus
STJ1,STJ1,STA. JUSTA,,41.1736739347414,-8.58479000200596,PRT3,http://www.stcp.pt/pt/viajar/paragens/?t=detalhe&paragem=STJ1,True,bus
ARNH1,ARNH1,AREINHO,,41.1444500309725,-8.57884813266298,PRT3,http://www.stcp.pt/pt/viajar/paragens/?t=detalhe&paragem=ARNH1,True,bus
LGT1,LGT1,LAGARTEIRO,,41.1515328215458,-8.56865408116958,PRT3,http://www.stcp.pt/pt/viajar/paragens/?t=detalhe&paragem=LGT1,True,bus
BVBR1,BVBR1,BOAVISTA BRASÍLIA,,41.1575604721884,-8.62737617194423,PRT1,http://www.stcp.pt/pt/viajar/paragens/?t=detalhe&paragem=BVBR1,True,bus
SRPT2,SRPT2,S.RA DO PORTO,,41.1774757724176,-8.62875919797583,PRT2,http://www.stcp.pt/pt/viajar/paragens/?t=detalhe&paragem=SRPT2,True,bus
JAZ1,JAZ1,JERÓNIMO AZEVEDO,,41.1794931491428,-8.6486343484598,PRT2,http://www.stcp.pt/pt/viajar/paragens/?t=detalhe&paragem=JAZ1,True,bus
BRVS,BRVS,BAIRRO DO VISO,,41.1812227739206,-8.64845272347513,PRT2,http://www.stcp.pt/pt/viajar/paragens/?t=detalhe&paragem=BRVS,True,bus
ROTA2,ROTA2,ROT. DA AREOSA,,41.1795833111047,-8.58208327674347,PRT3,http://www.stcp.pt/pt/viajar/paragens/?t=detalhe&paragem=ROTA2,True,bus
TLHR1,TLHR1,TELHEIRA,,41.1782663038109,-8.61393582418317,PRT3,http://www.stcp.pt/pt/viajar/paragens/?t=detalhe&paragem=TLHR1,True,bus
AVC1,AVC1,AVAL CIMA,,41.1684227743138,-8.60340882738872,PRT1,http://www.stcp.pt/pt/viajar/paragens/?t=detalhe&paragem=AVC1,True,bus
DAH2,DAH2,D.AFONSO HENRIQUES,,41.1723981948252,-8.68161868102503,PRT2,http://www.stcp.pt/pt/viajar/paragens/?t=detalhe&paragem=DAH2,True,bus
FCH1,FCH1,FUNCHAL,,41.1631317564222,-8.68340877761016,PRT2,http://www.stcp.pt/pt/viajar/paragens/?t=detalhe&paragem=FCH1,True,bus
LGCL2,LGCL2,LGO.CAMPO LINDO,,41.1697082955173,-8.60829243678164,PRT1,http://www.stcp.pt/pt/viajar/paragens/?t=detalhe&paragem=LGCL2,True,bus
MLH2,MLH2,MOLHE,,41.1595541326034,-8.68392850948585,PRT2,http://www.stcp.pt/pt/viajar/paragens/?t=detalhe&paragem=MLH2,True,bus
NEVG,NEVG,NEVOGILDE,,41.1615107541866,-8.67923020850295,PRT2,http://www.stcp.pt/pt/viajar/paragens/?t=detalhe&paragem=NEVG,True,bus
LNEV2,LNEV2,LGO.NEVOGILDE,,41.1628332904619,-8.67630551903548,PRT2,http://www.stcp.pt/pt/viajar/paragens/?t=detalhe&paragem=LNEV2,True,bus
LNEV1,LNEV1,LGO.NEVOGILDE,,41.1625869947631,-8.67644514752856,PRT2,http://www.stcp.pt/pt/viajar/paragens/?t=detalhe&paragem=LNEV1,True,bus
RM3,RM3,RAMALDE DO MEIO,,41.1732777591669,-8.64191667073895,PRT2,http://www.stcp.pt/pt/viajar/paragens/?t=detalhe&paragem=RM3,True,bus
CRM1,CRM1,CASA DE RAMALDE,,41.1682803793405,-8.64587341059192,PRT2,http://www.stcp.pt/pt/viajar/paragens/?t=detalhe&paragem=CRM1,True,bus
IRM2,IRM2,IGREJA DE RAMALDE,,41.168308489043,-8.64886771854513,PRT2,http://www.stcp.pt/pt/viajar/paragens/?t=detalhe&paragem=IRM2,True,bus
IRM1,IRM1,IGREJA DE RAMALDE,,41.1681946511903,-8.64877280813388,PRT2,http://www.stcp.pt/pt/viajar/paragens/?t=detalhe&paragem=IRM1,True,bus
BBL1,BBL1,BAIRRO BESSA LEITE,,41.1588551904807,-8.64415396131397,PRT1,http://www.stcp.pt/pt/viajar/paragens/?t=detalhe&paragem=BBL1,True,bus
FVLH1,FVLH1,FONTE VELHA,,41.1577500255256,-8.58494439204038,PRT1,http://www.stcp.pt/pt/viajar/paragens/?t=detalhe&paragem=FVLH1,True,bus
MATR1,MATR1,MATERNIDADE,,41.1513578336407,-8.62115246916688,PRT1,http://www.stcp.pt/pt/viajar/paragens/?t=detalhe&paragem=MATR1,True,bus
CMPT1,CMPT1,CAMPO PASTELEIRA,,41.1525298731974,-8.66222231218936,PRT2,http://www.stcp.pt/pt/viajar/paragens/?t=detalhe&paragem=CMPT1,True,bus
CMPT2,CMPT2,CAMPO PASTELEIRA,,41.1528774210184,-8.66183460404045,PRT2,http://www.stcp.pt/pt/viajar/paragens/?t=detalhe&paragem=CMPT2,True,bus
BLM,BLM,BOLHÃO (METRO),,41.1496365188789,-8.60493302634795,PRT1,http://www.stcp.pt/pt/viajar/paragens/?t=detalhe&paragem=BLM,True,bus
CMO1,CMO1,CARMO,,41.1468055502053,-8.61624998551496,PRT1,http://www.stcp.pt/pt/viajar/paragens/?t=detalhe&paragem=CMO1,True,bus
SI1,SI1,S.TO ISIDRO,,41.1578928769503,-8.60181302293654,PRT1,http://www.stcp.pt/pt/viajar/paragens/?t=detalhe&paragem=SI1,True,bus
RALG,RALG,R. DA ALEGRIA,,41.1597499496897,-8.60244439934204,PRT1,http://www.stcp.pt/pt/viajar/paragens/?t=detalhe&paragem=RALG,True,bus
C24A5,C24A5,CAMPO 24 DE AGOSTO,,41.1489196131184,-8.59763693796131,PRT1,http://www.stcp.pt/pt/viajar/paragens/?t=detalhe&paragem=C24A5,True,bus
IFOZ2,IFOZ2,IGREJA DA FOZ,,41.1483465643572,-8.66960728536792,PRT2,http://www.stcp.pt/pt/viajar/paragens/?t=detalhe&paragem=IFOZ2,True,bus
AGM1,AGM1,AGRAMONTE,,41.1589479051451,-8.63459526400112,PRT1,http://www.stcp.pt/pt/viajar/paragens/?t=detalhe&paragem=AGM1,True,bus
ALM1,ALM1,ALAMEDA,,41.1416443583199,-8.59898715411328,PRT1,http://www.stcp.pt/pt/viajar/paragens/?t=detalhe&paragem=ALM1,True,bus
PINM1,PINM1,PINHEIRO MANSO,,41.1619497492601,-8.65293200157697,PRT2,http://www.stcp.pt/pt/viajar/paragens/?t=detalhe&paragem=PINM1,True,bus
ADA3,ADA3,ARCA D ÁGUA,,41.1707259025861,-8.61296300089565,PRT1,http://www.stcp.pt/pt/viajar/paragens/?t=detalhe&paragem=ADA3,True,bus
JB2,JB2,JARDIM BOTÂNICO,,41.1543888369379,-8.64372224073307,PRT1,http://www.stcp.pt/pt/viajar/paragens/?t=detalhe&paragem=JB2,True,bus
CSP2,CSP2,C. SAÚDE PARANHOS,,41.1682221997921,-8.61233328808277,PRT1,http://www.stcp.pt/pt/viajar/paragens/?t=detalhe&paragem=CSP2,True,bus
AAL1,AAL1,AV.ALIADOS,,41.1489444244748,-8.61127779731674,PRT1,http://www.stcp.pt/pt/viajar/paragens/?t=detalhe&paragem=AAL1,True,bus
MCBL,MCBL,MERCADO DO BOLHÃO,,41.1494314903451,-8.607622804986,PRT1,http://www.stcp.pt/pt/viajar/paragens/?t=detalhe&paragem=MCBL,True,bus
AAL2,AAL2,AV. ALIADOS,,41.1488184731304,-8.61047208496171,PRT1,http://www.stcp.pt/pt/viajar/paragens/?t=detalhe&paragem=AAL2,True,bus
SCR1,SCR1,S. CRISPIM,,41.160649658395,-8.59383430721389,PRT1,http://www.stcp.pt/pt/viajar/paragens/?t=detalhe&paragem=SCR1,True,bus
GRC1,GRC1,GRACIOSA,,41.1629206119432,-8.62750244671068,PRT1,http://www.stcp.pt/pt/viajar/paragens/?t=detalhe&paragem=GRC1,True,bus
FRX2,FRX2,FREIXO,,41.1465556948703,-8.57940180065577,PRT3,http://www.stcp.pt/pt/viajar/paragens/?t=detalhe&paragem=FRX2,True,bus
CVA1,CVA1,CARVALHOSA,,41.1565116508708,-8.62016549558722,PRT1,http://www.stcp.pt/pt/viajar/paragens/?t=detalhe&paragem=CVA1,True,bus
MRR1,MRR1,MARRACUENE,,41.1616388919336,-8.62030553577466,PRT1,http://www.stcp.pt/pt/viajar/paragens/?t=detalhe&paragem=MRR1,True,bus
PJUV2,PJUV2,POUSADA JUVENTUDE,,41.1485052548273,-8.66004306100048,PRT2,http://www.stcp.pt/pt/viajar/paragens/?t=detalhe&paragem=PJUV2,True,bus
BRA4,BRA4,BR. DO AMIAL,,41.1766974211769,-8.62076893251198,PRT2,http://www.stcp.pt/pt/viajar/paragens/?t=detalhe&paragem=BRA4,True,bus
CRTO1,CRTO1,CRASTO,,41.1574340199481,-8.68198413450918,PRT2,http://www.stcp.pt/pt/viajar/paragens/?t=detalhe&paragem=CRTO1,True,bus
ST2,ST2,S. TOMÉ,,41.1844674399027,-8.61019518119348,PRT3,http://www.stcp.pt/pt/viajar/paragens/?t=detalhe&paragem=ST2,True,bus
FG1,FG1,FARIA GUIMARÃES,,41.162349087165,-8.60753843513791,PRT1,http://www.stcp.pt/pt/viajar/paragens/?t=detalhe&paragem=FG1,True,bus
IPRN2,IPRN2,IGREJA DE PARANHOS,,41.1734088566364,-8.60580445084521,PRT3,http://www.stcp.pt/pt/viajar/paragens/?t=detalhe&paragem=IPRN2,True,bus
RPM2,RPM2,R.PARTICULAR MONSANTO,,41.1718928413051,-8.61689491812581,PRT1,http://www.stcp.pt/pt/viajar/paragens/?t=detalhe&paragem=RPM2,True,bus
CI22,CI22,CINTURA INTERNA,,41.1720633536828,-8.6263260655163,PRT1,http://www.stcp.pt/pt/viajar/paragens/?t=detalhe&paragem=CI22,True,bus
CSR1,CSR1,C. SAÚDE RAMALDE,,41.1696914917374,-8.6538300739,PRT2,http://www.stcp.pt/pt/viajar/paragens/?t=detalhe&paragem=CSR1,True,bus
IMTT1,IMTT1,IMTT,,41.1784854613403,-8.64880054587232,PRT2,http://www.stcp.pt/pt/viajar/paragens/?t=detalhe&paragem=IMTT1,True,bus
IMTT2,IMTT2,IMTT,,41.1785360809621,-8.64921818159246,PRT2,http://www.stcp.pt/pt/viajar/paragens/?t=detalhe&paragem=IMTT2,True,bus
MCE3,MCE3,MUSEU C. ELÉCTRICO,,41.1472147275853,-8.63291896593299,PRT1,http://www.stcp.pt/pt/viajar/paragens/?t=detalhe&paragem=MCE3,True,bus
MCE4,MCE4,MUSEU C. ELÉTRICO,,41.147194411969,-8.63313882595475,PRT1,http://www.stcp.pt/pt/viajar/paragens/?t=detalhe&paragem=MCE4,True,bus
MPAZ6,MPAZ6,MAN.P.AZEVEDO 3,,41.1759707955691,-8.6508355427119,PRT2,http://www.stcp.pt/pt/viajar/paragens/?t=detalhe&paragem=MPAZ6,True,bus
MPAZ7,MPAZ7,MAN.P.AZEVEDO 3,,41.1760325167497,-8.65208376269271,PRT2,http://www.stcp.pt/pt/viajar/paragens/?t=detalhe&paragem=MPAZ7,True,bus
MPAZ5,MPAZ5,MAN.P.AZEVEDO 3,,41.1769887148863,-8.65183569923958,PRT2,http://www.stcp.pt/pt/viajar/paragens/?t=detalhe&paragem=MPAZ5,True,bus
URBP4,URBP4,URB.PRELADA II,,41.1720000033414,-8.63519443977676,PRT2,http://www.stcp.pt/pt/viajar/paragens/?t=detalhe&paragem=URBP4,True,bus
LIEG1,LIEG1,PR. DE LIÉGE,,41.1551269652178,-8.67755104338498,PRT2,http://www.stcp.pt/pt/viajar/paragens/?t=detalhe&paragem=LIEG1,True,bus
LIEG2,LIEG2,PR. DE LIÉGE,,41.1549510218576,-8.67770314808497,PRT2,http://www.stcp.pt/pt/viajar/paragens/?t=detalhe&paragem=LIEG2,True,bus
DIU1,DIU1,DIU,,41.1536339039489,-8.67594682733453,PRT2,http://www.stcp.pt/pt/viajar/paragens/?t=detalhe&paragem=DIU1,True,bus
LDDM,LDDM,LIDADOR / M. MONIZ,,41.1749379973329,-8.66071732702761,PRT2,http://www.stcp.pt/pt/viajar/paragens/?t=detalhe&paragem=LDDM,True,bus
LDD6,LDD6,LIDADOR /HOSPITAL,,41.1771699613793,-8.66251919643322,PRT2,http://www.stcp.pt/pt/viajar/paragens/?t=detalhe&paragem=LDD6,True,bus
PRG2,PRG2,PR. DA GALIZA,,41.1533385307041,-8.62652249724838,PRT1,http://www.stcp.pt/pt/viajar/paragens/?t=detalhe&paragem=PRG2,True,bus
PRG4,PRG4,PR. DA GALIZA,,41.1525313209565,-8.62704119651933,PRT1,http://www.stcp.pt/pt/viajar/paragens/?t=detalhe&paragem=PRG4,True,bus
PCV2,PCV2,PERO COVILHÃ,,41.164550410878,-8.68524106500395,PRT2,http://www.stcp.pt/pt/viajar/paragens/?t=detalhe&paragem=PCV2,True,bus
PT3,PT3,PASTELEIRA,,41.1504856807218,-8.66148834475263,PRT2,http://www.stcp.pt/pt/viajar/paragens/?t=detalhe&paragem=PT3,True,bus
PG2,PG2,PAULO DA GAMA,,41.1507012102192,-8.65864784494687,PRT2,http://www.stcp.pt/pt/viajar/paragens/?t=detalhe&paragem=PG2,True,bus
FLU4,FLU4,FLUVIAL,,41.1487947380692,-8.65344300012888,PRT2,http://www.stcp.pt/pt/viajar/paragens/?t=detalhe&paragem=FLU4,True,bus
IPO4,IPO4,IPO (CIRCUNVAL.),,41.1839151435425,-8.60438677565646,PRT3,http://www.stcp.pt/pt/viajar/paragens/?t=detalhe&paragem=IPO4,True,bus
ARS2,ARS2,AREOSA,,41.1802441063315,-8.58351581607596,PRT3,http://www.stcp.pt/pt/viajar/paragens/?t=detalhe&paragem=ARS2,True,bus
ARS3,ARS3,AREOSA,,41.1806132698509,-8.58351835193312,PRT3,http://www.stcp.pt/pt/viajar/paragens/?t=detalhe&paragem=ARS3,True,bus
PLIM2,PLIM2,PIRES DE LIMA,,41.1662342908664,-8.59723141878665,PRT1,http://www.stcp.pt/pt/viajar/paragens/?t=detalhe&paragem=PLIM2,True,bus
AVC2,AVC2,AVAL CIMA,,41.1681846919066,-8.6035212741008,PRT1,http://www.stcp.pt/pt/viajar/paragens/?t=detalhe&paragem=AVC2,True,bus
AVTE1,AVTE1,ALMEIDA VALENTE,,41.176714084595,-8.61134219283112,PRT3,http://www.stcp.pt/pt/viajar/paragens/?t=detalhe&paragem=AVTE1,True,bus
AVTE2,AVTE2,ALMEIDA VALENTE,,41.176820022414,-8.61152530107003,PRT3,http://www.stcp.pt/pt/viajar/paragens/?t=detalhe&paragem=AVTE2,True,bus
CVLO,CVLO,COVELO,,41.1665936865342,-8.60738693845119,PRT1,http://www.stcp.pt/pt/viajar/paragens/?t=detalhe&paragem=CVLO,True,bus
ISEP1,ISEP1,I.S.E.P.,,41.1785721459621,-8.60914310319778,PRT3,http://www.stcp.pt/pt/viajar/paragens/?t=detalhe&paragem=ISEP1,True,bus
ISEP2,ISEP2,I.S.E.P.,,41.1782960739781,-8.60931748041078,PRT3,http://www.stcp.pt/pt/viajar/paragens/?t=detalhe&paragem=ISEP2,True,bus
BLG1,BLG1,BERLENGAS,,41.1802207315372,-8.61372776381215,PRT3,http://www.stcp.pt/pt/viajar/paragens/?t=detalhe&paragem=BLG1,True,bus
BLG2,BLG2,BERLENGAS,,41.1795225498707,-8.6139630304142,PRT3,http://www.stcp.pt/pt/viajar/paragens/?t=detalhe&paragem=BLG2,True,bus
BRA1,BRA1,BR.DO AMIAL,,41.1764494061298,-8.62007743425771,PRT2,http://www.stcp.pt/pt/viajar/paragens/?t=detalhe&paragem=BRA1,True,bus
CSP1,CSP1,C. SAÚDE PARANHOS,,41.1688374869544,-8.61236995543781,PRT1,http://www.stcp.pt/pt/viajar/paragens/?t=detalhe&paragem=CSP1,True,bus
UFP1,UFP1,UNIV. F. PESSOA,,41.172577314345,-8.60911961606753,PRT3,http://www.stcp.pt/pt/viajar/paragens/?t=detalhe&paragem=UFP1,True,bus
CONS3,CONS3,CONSTITUIÇÃO,,41.1634679592738,-8.61094895881944,PRT1,http://www.stcp.pt/pt/viajar/paragens/?t=detalhe&paragem=CONS3,True,bus
COMB2,COMB2,COMBATENTES,,41.1645989919441,-8.60070467772582,PRT1,http://www.stcp.pt/pt/viajar/paragens/?t=detalhe&paragem=COMB2,True,bus
SAL2,SAL2,SALGUEIROS,,41.1698691155595,-8.59932434254049,PRT1,http://www.stcp.pt/pt/viajar/paragens/?t=detalhe&paragem=SAL2,True,bus
CI21,CI21,CINTURA INTERNA,,41.172774806047,-8.6263405902266,PRT1,http://www.stcp.pt/pt/viajar/paragens/?t=detalhe&paragem=CI21,True,bus
CI31,CI31,CINTURA INTERNA,,41.1739166682503,-8.61319441005714,PRT1,http://www.stcp.pt/pt/viajar/paragens/?t=detalhe&paragem=CI31,True,bus
LGCL1,LGCL1,LGO.CAMPO LINDO,,41.1697997224544,-8.60797934808935,PRT1,http://www.stcp.pt/pt/viajar/paragens/?t=detalhe&paragem=LGCL1,True,bus
CPSF2,CPSF2,CAPELA SRA.FÁTIMA,,41.1749722265935,-8.61927779828762,PRT2,http://www.stcp.pt/pt/viajar/paragens/?t=detalhe&paragem=CPSF2,True,bus
CPU2,CPU2,CAPUCHINHOS,,41.1828331626415,-8.61772767676164,PRT2,http://www.stcp.pt/pt/viajar/paragens/?t=detalhe&paragem=CPU2,True,bus
ALVT2,ALVT2,ALMEIDA VALENTE,,41.175104218335,-8.60947806697541,PRT3,http://www.stcp.pt/pt/viajar/paragens/?t=detalhe&paragem=ALVT2,True,bus
AML1,AML1,AMIAL,,41.1824995139562,-8.61342791251281,PRT3,http://www.stcp.pt/pt/viajar/paragens/?t=detalhe&paragem=AML1,True,bus
AML4,AML4,AMIAL,,41.1840645242373,-8.61340957950204,MAI1,http://www.stcp.pt/pt/viajar/paragens/?t=detalhe&paragem=AML4,True,bus
ISEP3,ISEP3,ISEP/AGRA,,41.176408832424,-8.60797952743696,PRT3,http://www.stcp.pt/pt/viajar/paragens/?t=detalhe&paragem=ISEP3,True,bus
ISEP4,ISEP4,ISEP/AGRA,,41.1764737536568,-8.60813182401521,PRT3,http://www.stcp.pt/pt/viajar/paragens/?t=detalhe&paragem=ISEP4,True,bus
ACN1,ACN1,ANTÓNIO CÂNDIDO,,41.1644783345992,-8.61047041742102,PRT1,http://www.stcp.pt/pt/viajar/paragens/?t=detalhe&paragem=ACN1,True,bus
CSJ4,CSJ4,CAMPUS S. JOÃO,,41.179768966559,-8.60541767181265,PRT3,http://www.stcp.pt/pt/viajar/paragens/?t=detalhe&paragem=CSJ4,True,bus
TXP1,TXP1,TEIXEIRA PASCOAIS,,41.1612318045269,-8.59872062030313,PRT1,http://www.stcp.pt/pt/viajar/paragens/?t=detalhe&paragem=TXP1,True,bus
PCC1,PCC1,PISCINA CAMPANHÃ,,41.1498055606151,-8.59011106331958,PRT1,http://www.stcp.pt/pt/viajar/paragens/?t=detalhe&paragem=PCC1,True,bus
CMP5,CMP5,CAMPANHÃ,,41.1486504778038,-8.58428232679995,PRT1,http://www.stcp.pt/pt/viajar/paragens/?t=detalhe&paragem=CMP5,True,bus
CMP2,CMP2,CAMPANHÃ,,41.1484671741342,-8.58603848009637,PRT1,http://www.stcp.pt/pt/viajar/paragens/?t=detalhe&paragem=CMP2,True,bus
AL1,AL1,AV. ALIADOS,,41.147249647351,-8.61097289505091,PRT1,http://www.stcp.pt/pt/viajar/paragens/?t=detalhe&paragem=AL1,True,bus
AL2,AL2,AV. ALIADOS,,41.1474721716041,-8.61094437715338,PRT1,http://www.stcp.pt/pt/viajar/paragens/?t=detalhe&paragem=AL2,True,bus
AL3,AL3,AV. ALIADOS,,41.1473646177743,-8.61147403739939,PRT1,http://www.stcp.pt/pt/viajar/paragens/?t=detalhe&paragem=AL3,True,bus
AL7,AL7,AV. ALIADOS,,41.1481552258623,-8.61135805535354,PRT1,http://www.stcp.pt/pt/viajar/paragens/?t=detalhe&paragem=AL7,True,bus
PCID2,PCID2,PR. CID. SALVADOR,,41.1732851580982,-8.68927197735203,PRT2,http://www.stcp.pt/pt/viajar/paragens/?t=detalhe&paragem=PCID2,True,bus
AUL1,AUL1,AUGUSTO LESSA,,41.1698333143402,-8.60249996929345,PRT1,http://www.stcp.pt/pt/viajar/paragens/?t=detalhe&paragem=AUL1,True,bus
AUL2,AUL2,AUGUSTO LESSA,,41.1699770772427,-8.60250850512382,PRT1,http://www.stcp.pt/pt/viajar/paragens/?t=detalhe&paragem=AUL2,True,bus
ALD1,ALD1,ALDOAR JUNTA  FREG.,,41.1709479175264,-8.67067312266301,PRT2,http://www.stcp.pt/pt/viajar/paragens/?t=detalhe&paragem=ALD1,True,bus
PDR3,PDR3,LARGO DO PADRÃO,,41.1473889111185,-8.60166667238201,PRT1,http://www.stcp.pt/pt/viajar/paragens/?t=detalhe&paragem=PDR3,True,bus
PDR4,PDR4,PADRÃO,,41.1464803547337,-8.60156227257507,PRT1,http://www.stcp.pt/pt/viajar/paragens/?t=detalhe&paragem=PDR4,True,bus
AZV1,AZV1,AZEVEDO,,41.1515231928068,-8.56643823652951,PRT3,http://www.stcp.pt/pt/viajar/paragens/?t=detalhe&paragem=AZV1,True,bus
LGT3,LGT3,LAGARTEIRO,,41.1558711275456,-8.57148256756032,PRT3,http://www.stcp.pt/pt/viajar/paragens/?t=detalhe&paragem=LGT3,True,bus
PARR3,PARR3,PONTE ARRÁBIDA,,41.1484389034476,-8.64106159434004,PRT1,http://www.stcp.pt/pt/viajar/paragens/?t=detalhe&paragem=PARR3,True,bus
CAM1,CAM1,CARLOS AMARANTE,,41.1754480932435,-8.61365036592353,PRT3,http://www.stcp.pt/pt/viajar/paragens/?t=detalhe&paragem=CAM1,True,bus
MLAM,MLAM,MARIA LAMAS,,41.1696273865335,-8.63265341436211,PRT1,http://www.stcp.pt/pt/viajar/paragens/?t=detalhe&paragem=MLAM,True,bus
JAZ2,JAZ2,JERÓNIMO AZEVEDO,,41.180797750557,-8.6457203810657,PRT2,http://www.stcp.pt/pt/viajar/paragens/?t=detalhe&paragem=JAZ2,True,bus
LGO3,LGO3,LICEU GARCIA ORTA,,41.1643083098675,-8.66806259440616,PRT2,http://www.stcp.pt/pt/viajar/paragens/?t=detalhe&paragem=LGO3,True,bus
ALM2,ALM2,ALAMEDA,,41.141699912796,-8.59943159089313,PRT1,http://www.stcp.pt/pt/viajar/paragens/?t=detalhe&paragem=ALM2,True,bus
BNJ2,BNJ2,BONJÓIA,,41.1517706987207,-8.57474312288446,PRT3,http://www.stcp.pt/pt/viajar/paragens/?t=detalhe&paragem=BNJ2,True,bus
BCP2,BCP2,BR.CERCO PORTO,,41.1575155815653,-8.5699924041566,PRT3,http://www.stcp.pt/pt/viajar/paragens/?t=detalhe&paragem=BCP2,True,bus
MERL,MERL,MEIRAL,,41.1487395716906,-8.57254015764169,PRT3,http://www.stcp.pt/pt/viajar/paragens/?t=detalhe&paragem=MERL,True,bus
BVCT1,BVCT1,BOAVISTA CORREIOS,,41.1581179209701,-8.62783762828396,PRT1,http://www.stcp.pt/pt/viajar/paragens/?t=detalhe&paragem=BVCT1,True,bus
CMIC1,CMIC1,CAROLINA MICHAELIS,,41.1578819204124,-8.62209452283992,PRT1,http://www.stcp.pt/pt/viajar/paragens/?t=detalhe&paragem=CMIC1,True,bus
CVI5,CVI5,CARVALHIDO,,41.1667615896037,-8.62596401504458,PRT1,http://www.stcp.pt/pt/viajar/paragens/?t=detalhe&paragem=CVI5,True,bus
PSG,PSG,PEDRAS SALGADAS,,41.1593332899589,-8.56911106030301,PRT3,http://www.stcp.pt/pt/viajar/paragens/?t=detalhe&paragem=PSG,True,bus
NDA1,NDA1,NOEDA,,41.1461872287448,-8.58422311066252,PRT1,http://www.stcp.pt/pt/viajar/paragens/?t=detalhe&paragem=NDA1,True,bus
PCC2,PCC2,PISCINA CAMPANHÃ,,41.1501110869753,-8.59058337831416,PRT1,http://www.stcp.pt/pt/viajar/paragens/?t=detalhe&paragem=PCC2,True,bus
VLN1,VLN1,VILA NOVA,,41.1726020920041,-8.66435896336505,PRT2,http://www.stcp.pt/pt/viajar/paragens/?t=detalhe&paragem=VLN1,True,bus
DQL,DQL,DUQUE LOULÉ,,41.1455238525657,-8.60369419478943,PRT1,http://www.stcp.pt/pt/viajar/paragens/?t=detalhe&paragem=DQL,True,bus
VIS4,VIS4,VISO,,41.1774999431537,-8.6434167007391,PRT2,http://www.stcp.pt/pt/viajar/paragens/?t=detalhe&paragem=VIS4,True,bus
BLGT2,BLGT2,BR.LAGARTEIRO,,41.1532757966204,-8.56731756034338,PRT3,http://www.stcp.pt/pt/viajar/paragens/?t=detalhe&paragem=BLGT2,True,bus
AZV3,AZV3,AZEVEDO,,41.1519532290389,-8.56701289407437,PRT3,http://www.stcp.pt/pt/viajar/paragens/?t=detalhe&paragem=AZV3,True,bus
PQO1,PQO1,PARQUE ORIENTAL,,41.1550823580734,-8.56816536111414,PRT3,http://www.stcp.pt/pt/viajar/paragens/?t=detalhe&paragem=PQO1,True,bus
PQO2,PQO2,PARQUE ORIENTAL,,41.1548888959371,-8.56824997419438,PRT3,http://www.stcp.pt/pt/viajar/paragens/?t=detalhe&paragem=PQO2,True,bus
LGTN1,LGTN1,LAGARTEIRO (NORTE),,41.1561821283748,-8.57122468949242,PRT3,http://www.stcp.pt/pt/viajar/paragens/?t=detalhe&paragem=LGTN1,True,bus
LGTN2,LGTN2,LAGARTEIRO (NORTE),,41.1559575425171,-8.57137139525954,PRT3,http://www.stcp.pt/pt/viajar/paragens/?t=detalhe&paragem=LGTN2,True,bus
CPTO2,CPTO2,CERCO DO PORTO,,41.1600350468594,-8.57091967390529,PRT3,http://www.stcp.pt/pt/viajar/paragens/?t=detalhe&paragem=CPTO2,True,bus
ESCL2,ESCL2,ESCOLAS,,41.1641317793626,-8.57050115090407,PRT3,http://www.stcp.pt/pt/viajar/paragens/?t=detalhe&paragem=ESCL2,True,bus
BLGT1,BLGT1,BR. LAGARTEIRO,,41.1533877205535,-8.56734117410638,PRT3,http://www.stcp.pt/pt/viajar/paragens/?t=detalhe&paragem=BLGT1,True,bus
FLUN3,FLUN3,FLUVIAL (NORTE),,41.1530277496949,-8.65516665069109,PRT2,http://www.stcp.pt/pt/viajar/paragens/?t=detalhe&paragem=FLUN3,True,bus
AANT5,AANT5,ALAMEDA DAS ANTAS,,41.163200050617,-8.58340391200963,PRT1,http://www.stcp.pt/pt/viajar/paragens/?t=detalhe&paragem=AANT5,True,bus
INF1,INF1,INFANTE,,41.1405833039917,-8.61636107257486,PRT1,http://www.stcp.pt/pt/viajar/paragens/?t=detalhe&paragem=INF1,True,bus
CMO3,CMO3,CARMO,,41.1467499940284,-8.61624993407127,PRT1,http://www.stcp.pt/pt/viajar/paragens/?t=detalhe&paragem=CMO3,True,bus
SR1,SR1,S. ROQUE,,41.1661086306949,-8.56951557974869,PRT3,http://www.stcp.pt/pt/viajar/paragens/?t=detalhe&paragem=SR1,True,bus
SR3,SR3,S. ROQUE,,41.1666944176266,-8.56802776965728,PRT3,http://www.stcp.pt/pt/viajar/paragens/?t=detalhe&paragem=SR3,True,bus
ACO2,ACO2,ANTÓNIO COELHO,,41.1769708494976,-8.58538176558081,PRT3,http://www.stcp.pt/pt/viajar/paragens/?t=detalhe&paragem=ACO2,True,bus
VFM2,VFM2,VALE FORMOSO,,41.166552302168,-8.61262827292043,PRT1,http://www.stcp.pt/pt/viajar/paragens/?t=detalhe&paragem=VFM2,True,bus
MLAR2,MLAR2,MANUEL LARANJEIRA,,41.1731946145799,-8.59895627630344,PRT3,http://www.stcp.pt/pt/viajar/paragens/?t=detalhe&paragem=MLAR2,True,bus
CPRN4,CPRN4,CEMITÉRIO PARANHOS,,41.17420880451,-8.6004976613948,PRT3,http://www.stcp.pt/pt/viajar/paragens/?t=detalhe&paragem=CPRN4,True,bus
SVP1,SVP1,SILVA PORTO,,41.1676110712736,-8.61708330868346,PRT1,http://www.stcp.pt/pt/viajar/paragens/?t=detalhe&paragem=SVP1,True,bus
SVP2,SVP2,SILVA PORTO,,41.1674698226306,-8.61731176270086,PRT1,http://www.stcp.pt/pt/viajar/paragens/?t=detalhe&paragem=SVP2,True,bus
SVT1,SVT1,SILVA TAPADA,,41.1665833572203,-8.59338886878794,PRT1,http://www.stcp.pt/pt/viajar/paragens/?t=detalhe&paragem=SVT1,True,bus
SVT3,SVT3,SILVA TAPADA,,41.1673972755143,-8.59322549595596,PRT1,http://www.stcp.pt/pt/viajar/paragens/?t=detalhe&paragem=SVT3,True,bus
VDAM,VDAM,VITORINO DAMASIO,,41.1696974060094,-8.59394551235023,PRT1,http://www.stcp.pt/pt/viajar/paragens/?t=detalhe&paragem=VDAM,True,bus
RGSM1,RGSM1,RODRIGUES SEMIDE,,41.1772952317288,-8.58296130143362,PRT3,http://www.stcp.pt/pt/viajar/paragens/?t=detalhe&paragem=RGSM1,True,bus
VFM7,VFM7,VALE FORMOSO,,41.1662712952408,-8.61137152123729,PRT1,http://www.stcp.pt/pt/viajar/paragens/?t=detalhe&paragem=VFM7,True,bus
HSM4,HSM4,HOSP. S.TA MARIA,,41.1599722479361,-8.6118332823872,PRT1,http://www.stcp.pt/pt/viajar/paragens/?t=detalhe&paragem=HSM4,True,bus
ST1,ST1,S. TOMÉ,,41.183943131152,-8.61069195022416,PRT3,http://www.stcp.pt/pt/viajar/paragens/?t=detalhe&paragem=ST1,True,bus
VFM6,VFM6,VALE FORMOSO,,41.1659444331232,-8.61141668112942,PRT1,http://www.stcp.pt/pt/viajar/paragens/?t=detalhe&paragem=VFM6,True,bus
DC1,DC1,DIOGO CÃO,,41.1653326460882,-8.59271927192388,PRT1,http://www.stcp.pt/pt/viajar/paragens/?t=detalhe&paragem=DC1,True,bus
ACO1,ACO1,ANTÓNIO COELHO,,41.1774112374973,-8.5849264563655,PRT3,http://www.stcp.pt/pt/viajar/paragens/?t=detalhe&paragem=ACO1,True,bus
MPL7,MPL7,MARQUÊS,,41.1617788125239,-8.6031435259782,PRT1,http://www.stcp.pt/pt/viajar/paragens/?t=detalhe&paragem=MPL7,True,bus
ESED1,ESED1,ESC. SUP. EDUCAÇÃO,,41.1808332890308,-8.59774996068433,PRT3,http://www.stcp.pt/pt/viajar/paragens/?t=detalhe&paragem=ESED1,True,bus
CPL2,CPL2,CAMPO LINDO,,41.1676501106908,-8.61039828768833,PRT1,http://www.stcp.pt/pt/viajar/paragens/?t=detalhe&paragem=CPL2,True,bus
BRRG1,BRRG1,BR.REGADO,,41.1755301092834,-8.61601568437734,PRT2,http://www.stcp.pt/pt/viajar/paragens/?t=detalhe&paragem=BRRG1,True,bus
SAL3,SAL3,SALGUEIROS,,41.1696842284242,-8.59657220102645,PRT1,http://www.stcp.pt/pt/viajar/paragens/?t=detalhe&paragem=SAL3,True,bus
SAL4,SAL4,SALGUEIROS,,41.1695679670666,-8.59648701391737,PRT1,http://www.stcp.pt/pt/viajar/paragens/?t=detalhe&paragem=SAL4,True,bus
LGT4,LGT4,LAGARTEIRO,,41.1557724467367,-8.57138659979553,PRT3,http://www.stcp.pt/pt/viajar/paragens/?t=detalhe&paragem=LGT4,True,bus
BJ3,BJ3,BENTO JÚNIOR,,41.1655000074486,-8.60441664535687,PRT1,http://www.stcp.pt/pt/viajar/paragens/?t=detalhe&paragem=BJ3,True,bus
FG3,FG3,FARIA GUIMARÃES,,41.1643333004534,-8.60672217930642,PRT1,http://www.stcp.pt/pt/viajar/paragens/?t=detalhe&paragem=FG3,True,bus
ABM1,ABM1,ALBERTO MACEDO,,41.1671944068014,-8.65461110758549,PRT2,http://www.stcp.pt/pt/viajar/paragens/?t=detalhe&paragem=ABM1,True,bus
ABM2,ABM2,ALBERTO MACEDO,,41.1670277743462,-8.65458333077541,PRT2,http://www.stcp.pt/pt/viajar/paragens/?t=detalhe&paragem=ABM2,True,bus
BRP1,BRP1,BAIRRO DA PREVIDÊNCIA,,41.1657830989615,-8.65765427610293,PRT2,http://www.stcp.pt/pt/viajar/paragens/?t=detalhe&paragem=BRP1,True,bus
BRP2,BRP2,BAIRRO DA PREVIDÊNCIA,,41.1656666212414,-8.65752775744611,PRT2,http://www.stcp.pt/pt/viajar/paragens/?t=detalhe&paragem=BRP2,True,bus
BRV3,BRV3,BAIRRO DA VILARINHA,,41.1662221646187,-8.6596388465394,PRT2,http://www.stcp.pt/pt/viajar/paragens/?t=detalhe&paragem=BRV3,True,bus
BRV4,BRV4,BAIRRO DA VILARINHA,,41.1661389066001,-8.65974994523804,PRT2,http://www.stcp.pt/pt/viajar/paragens/?t=detalhe&paragem=BRV4,True,bus
BCM5,BCM5,BOAVISTA-CASA DA MÚSICA,,41.1592966400697,-8.6288887666657,PRT1,http://www.stcp.pt/pt/viajar/paragens/?t=detalhe&paragem=BCM5,True,bus
FRS,FRS,R.FRANCISCO SANCHES,,41.1647441064654,-8.62976815379848,PRT1,http://www.stcp.pt/pt/viajar/paragens/?t=detalhe&paragem=FRS,True,bus
CMS1,CMS1,CASA DA MÚSICA (METRO),,41.1610423208165,-8.62980018845283,PRT1,http://www.stcp.pt/pt/viajar/paragens/?t=detalhe&paragem=CMS1,True,bus
RSH,RSH,SRA. DA HORA,,41.1453251863274,-8.57667709685427,PRT3,http://www.stcp.pt/pt/viajar/paragens/?t=detalhe&paragem=RSH,True,bus
CREI2,CREI2,CRISTO REI,,41.1597978667323,-8.66632674117118,PRT2,http://www.stcp.pt/pt/viajar/paragens/?t=detalhe&paragem=CREI2,True,bus
CREI1,CREI1,CRISTO REI,,41.1598395163925,-8.66623831808841,PRT2,http://www.stcp.pt/pt/viajar/paragens/?t=detalhe&paragem=CREI1,True,bus
DAFC2,DAFC2,DR. AFONSO CORDEIRO,,41.1734149762472,-8.68552395347509,PRT2,http://www.stcp.pt/pt/viajar/paragens/?t=detalhe&paragem=DAFC2,True,bus
FCH2,FCH2,FUNCHAL,,41.1620758734489,-8.68405737795889,PRT2,http://www.stcp.pt/pt/viajar/paragens/?t=detalhe&paragem=FCH2,True,bus
JNN2,JNN2,JACINTO NUNES,,41.1581074917741,-8.68155990915016,PRT2,http://www.stcp.pt/pt/viajar/paragens/?t=detalhe&paragem=JNN2,True,bus
NEVG1,NEVG1,NEVOGILDE,,41.1612222359308,-8.6790832849428,PRT2,http://www.stcp.pt/pt/viajar/paragens/?t=detalhe&paragem=NEVG1,True,bus
RCRT2,RCRT2,R.CRASTO,,41.1619999481959,-8.67169443653126,PRT2,http://www.stcp.pt/pt/viajar/paragens/?t=detalhe&paragem=RCRT2,True,bus
RCRT1,RCRT1,R.CRASTO,,41.1618432383596,-8.67168290411675,PRT2,http://www.stcp.pt/pt/viajar/paragens/?t=detalhe&paragem=RCRT1,True,bus
CPL,CPL,CAMPO LINDO,,41.1680624578727,-8.61047468870219,PRT1,http://www.stcp.pt/pt/viajar/paragens/?t=detalhe&paragem=CPL,True,bus
SVT4,SVT4,SILVA TAPADA,,41.1675175100518,-8.59326351619497,PRT1,http://www.stcp.pt/pt/viajar/paragens/?t=detalhe&paragem=SVT4,True,bus
VFM3,VFM3,VALE FORMOSO,,41.1663610596947,-8.6125832646015,PRT1,http://www.stcp.pt/pt/viajar/paragens/?t=detalhe&paragem=VFM3,True,bus
VFM1,VFM1,VALE FORMOSO,,41.165711537791,-8.61082159847956,PRT1,http://www.stcp.pt/pt/viajar/paragens/?t=detalhe&paragem=VFM1,True,bus
HSJ10,HSJ10,HOSP. S. JOÃO (CIRCUNVALAÇÃO),,41.1831110854655,-8.59974993851189,PRT3,http://www.stcp.pt/pt/viajar/paragens/?t=detalhe&paragem=HSJ10,True,bus
SP,SP,SERPA PINTO,,41.1633077792499,-8.62084813989216,PRT1,http://www.stcp.pt/pt/viajar/paragens/?t=detalhe&paragem=SP,True,bus
HSJ3,HSJ3,HOSP. S. JOÃO (METRO),,41.1832725736339,-8.60214957563404,PRT3,http://www.stcp.pt/pt/viajar/paragens/?t=detalhe&paragem=HSJ3,True,bus
IPO2,IPO2,INST. ONCOLOGIA,,41.18333232933,-8.60378665900426,PRT3,http://www.stcp.pt/pt/viajar/paragens/?t=detalhe&paragem=IPO2,True,bus
CONS2,CONS2,CONSTITUIÇÃO,,41.1633333556051,-8.60897224515225,PRT1,http://www.stcp.pt/pt/viajar/paragens/?t=detalhe&paragem=CONS2,True,bus
BRCV,BRCV,BR.CARVALHIDO,,41.1690794519665,-8.62297633856855,PRT1,http://www.stcp.pt/pt/viajar/paragens/?t=detalhe&paragem=BRCV,True,bus
BVLH3,BVLH3,BICA VELHA,,41.167472188817,-8.62086110265161,PRT1,http://www.stcp.pt/pt/viajar/paragens/?t=detalhe&paragem=BVLH3,True,bus
ARS8,ARS8,AREOSA,,41.1806944709077,-8.58283326253606,PRT3,http://www.stcp.pt/pt/viajar/paragens/?t=detalhe&paragem=ARS8,True,bus
AA1,AA1,ALTO DA AREOSA,,41.1788015511771,-8.58399453457246,PRT3,http://www.stcp.pt/pt/viajar/paragens/?t=detalhe&paragem=AA1,True,bus
ASPL1,ASPL1,ASPRELA,,41.1844539135708,-8.60474821086491,MAI1,http://www.stcp.pt/pt/viajar/paragens/?t=detalhe&paragem=ASPL1,True,bus
CI32,CI32,CINTURA INTERNA,,41.1736295865422,-8.61322233925822,PRT1,http://www.stcp.pt/pt/viajar/paragens/?t=detalhe&paragem=CI32,True,bus
BJ1,BJ1,BENTO JÚNIOR,,41.1653888552905,-8.60383330778519,PRT1,http://www.stcp.pt/pt/viajar/paragens/?t=detalhe&paragem=BJ1,True,bus
CONS1,CONS1,CONSTITUIÇÃO,,41.1638278148902,-8.60630376891161,PRT1,http://www.stcp.pt/pt/viajar/paragens/?t=detalhe&paragem=CONS1,True,bus
CF1,CF1,CONDE FERREIRA,,41.169577635705,-8.58946017938194,PRT3,http://www.stcp.pt/pt/viajar/paragens/?t=detalhe&paragem=CF1,True,bus
CF2,CF2,CONDE FERREIRA,,41.1698391775931,-8.58935475391457,PRT3,http://www.stcp.pt/pt/viajar/paragens/?t=detalhe&paragem=CF2,True,bus
AA2,AA2,ALTO DA AREOSA,,41.1787027037501,-8.58419609859355,PRT3,http://www.stcp.pt/pt/viajar/paragens/?t=detalhe&paragem=AA2,True,bus
OUTE3,OUTE3,OUTEIRO,,41.1707777613301,-8.59747221822891,PRT1,http://www.stcp.pt/pt/viajar/paragens/?t=detalhe&paragem=OUTE3,True,bus
OUTE4,OUTE4,OUTEIRO,,41.1712461820729,-8.59777904406366,PRT1,http://www.stcp.pt/pt/viajar/paragens/?t=detalhe&paragem=OUTE4,True,bus
MATR2,MATR2,MATERNIDADE,,41.1505555125649,-8.62186114241054,PRT1,http://www.stcp.pt/pt/viajar/paragens/?t=detalhe&paragem=MATR2,True,bus
MGB2,MGB2,MIGUEL BOMBARDA,,41.1500277285356,-8.62305549335269,PRT1,http://www.stcp.pt/pt/viajar/paragens/?t=detalhe&paragem=MGB2,True,bus
CRT1,CRT1,CARTES,,41.1626923188913,-8.57488812278456,PRT3,http://www.stcp.pt/pt/viajar/paragens/?t=detalhe&paragem=CRT1,True,bus
LPDZ,LPDZ,L.GO 1º DEZEMBRO,,41.1431246761791,-8.6090250418356,PRT1,http://www.stcp.pt/pt/viajar/paragens/?t=detalhe&paragem=LPDZ,True,bus
BTLH6,BTLH6,BATALHA,,41.1449115961475,-8.60441069637148,PRT1,http://www.stcp.pt/pt/viajar/paragens/?t=detalhe&paragem=BTLH6,True,bus
BL4,BL4,BARROS LIMA,,41.1548388692994,-8.5954872415644,PRT1,http://www.stcp.pt/pt/viajar/paragens/?t=detalhe&paragem=BL4,True,bus
C24A3,C24A3,CAMPO 24 DE AGOSTO,,41.1486110729034,-8.59878464572987,PRT1,http://www.stcp.pt/pt/viajar/paragens/?t=detalhe&paragem=C24A3,True,bus
ST3,ST3,S. TOMÉ,,41.1838044114954,-8.60940372690547,PRT3,http://www.stcp.pt/pt/viajar/paragens/?t=detalhe&paragem=ST3,True,bus
ST4,ST4,S. TOMÉ,,41.1839868223974,-8.60958097150817,PRT3,http://www.stcp.pt/pt/viajar/paragens/?t=detalhe&paragem=ST4,True,bus
RCON,RCON,R. CONTUMIL,,41.1695716351108,-8.58706572377775,PRT3,http://www.stcp.pt/pt/viajar/paragens/?t=detalhe&paragem=RCON,True,bus
RGSM2,RGSM2,RODRIGUES SEMIDE,,41.1773497549932,-8.58313304874668,PRT3,http://www.stcp.pt/pt/viajar/paragens/?t=detalhe&paragem=RGSM2,True,bus
ENX1,ENX1,ENXURREIRAS,,41.1795237610351,-8.58808732933182,PRT3,http://www.stcp.pt/pt/viajar/paragens/?t=detalhe&paragem=ENX1,True,bus
AML3,AML3,AMIAL,,41.1836118917206,-8.61239389794445,PRT3,http://www.stcp.pt/pt/viajar/paragens/?t=detalhe&paragem=AML3,True,bus
AML2,AML2,AMIAL,,41.1831689574214,-8.61280780875037,PRT3,http://www.stcp.pt/pt/viajar/paragens/?t=detalhe&paragem=AML2,True,bus
HSJ11,HSJ11,HOSP. S. JOÃO (CIRCUNVALAÇÃO),,41.1831115814603,-8.59993813539819,PRT3,http://www.stcp.pt/pt/viajar/paragens/?t=detalhe&paragem=HSJ11,True,bus
HSJ9,HSJ9,HOSP. S. JOÃO (CIRCUNVALAÇÃO),,41.1828353918258,-8.59979040620757,PRT3,http://www.stcp.pt/pt/viajar/paragens/?t=detalhe&paragem=HSJ9,True,bus
HSJ7,HSJ7,HOSP. S. JOÃO (URGÊNCIA),,41.182836287319,-8.60032328716582,PRT3,http://www.stcp.pt/pt/viajar/paragens/?t=detalhe&paragem=HSJ7,True,bus
HSJ12,HSJ12,HOSP. S. JOÃO (CIRCUNVALAÇÃO),,41.1833164588584,-8.60063897471304,PRT3,http://www.stcp.pt/pt/viajar/paragens/?t=detalhe&paragem=HSJ12,True,bus
STJ4,STJ4,STA. JUSTA,,41.1739732709339,-8.58484974113769,PRT3,http://www.stcp.pt/pt/viajar/paragens/?t=detalhe&paragem=STJ4,True,bus
TLHR2,TLHR2,TELHEIRA,,41.1771917355318,-8.61419477782534,PRT3,http://www.stcp.pt/pt/viajar/paragens/?t=detalhe&paragem=TLHR2,True,bus
ASP3,ASP3,ASPRELA,,41.181681825509,-8.59543429694399,PRT3,http://www.stcp.pt/pt/viajar/paragens/?t=detalhe&paragem=ASP3,True,bus
IPO5,IPO5,IPO (CIRCUNVAL.),,41.1845041660829,-8.60566631736492,PRT3,http://www.stcp.pt/pt/viajar/paragens/?t=detalhe&paragem=IPO5,True,bus
SVT2,SVT2,SILVA TAPADA,,41.16678870262,-8.59393830601288,PRT1,http://www.stcp.pt/pt/viajar/paragens/?t=detalhe&paragem=SVT2,True,bus
IB2,IB2,ILHA BRAVA,,41.1815923632025,-8.60948598532393,PRT3,http://www.stcp.pt/pt/viajar/paragens/?t=detalhe&paragem=IB2,True,bus
IB3,IB3,ILHA BRAVA,,41.1817816316492,-8.60929058960363,PRT3,http://www.stcp.pt/pt/viajar/paragens/?t=detalhe&paragem=IB3,True,bus
BVLH1,BVLH1,BICA VELHA,,41.1676666875802,-8.61949998695099,PRT1,http://www.stcp.pt/pt/viajar/paragens/?t=detalhe&paragem=BVLH1,True,bus
BVLH2,BVLH2,BICA VELHA,,41.1678310175981,-8.62064666535233,PRT1,http://www.stcp.pt/pt/viajar/paragens/?t=detalhe&paragem=BVLH2,True,bus
CAM3,CAM3,CARLOS AMARANTE,,41.1754547397726,-8.61386957052867,PRT3,http://www.stcp.pt/pt/viajar/paragens/?t=detalhe&paragem=CAM3,True,bus
CCBR,CCBR,COSTA CABRAL,,41.1683413634114,-8.59239479154192,PRT1,http://www.stcp.pt/pt/viajar/paragens/?t=detalhe&paragem=CCBR,True,bus
LW1,LW1,LUIS WOODHOUSE,,41.1684695692002,-8.59122578968461,PRT1,http://www.stcp.pt/pt/viajar/paragens/?t=detalhe&paragem=LW1,True,bus
LW2,LW2,LUIS WOODHOUSE,,41.168278177313,-8.59187052933732,PRT1,http://www.stcp.pt/pt/viajar/paragens/?t=detalhe&paragem=LW2,True,bus
ACST2,ACST2,ÁLVARO CASTELÕES,,41.1665316514103,-8.60165822807054,PRT1,http://www.stcp.pt/pt/viajar/paragens/?t=detalhe&paragem=ACST2,True,bus
EZC1,EZC1,EZEQUIEL CAMPOS,,41.174448685118,-8.65379299192125,PRT2,http://www.stcp.pt/pt/viajar/paragens/?t=detalhe&paragem=EZC1,True,bus
PRO1,PRO1,PEREIRÓ,,41.1723684499854,-8.65549663765571,PRT2,http://www.stcp.pt/pt/viajar/paragens/?t=detalhe&paragem=PRO1,True,bus
PARR1,PARR1,PONTE DA ARRÁBIDA,,41.148394449336,-8.64036236072471,PRT1,http://www.stcp.pt/pt/viajar/paragens/?t=detalhe&paragem=PARR1,True,bus
STC2,STC2,S.TA CATARINA,,41.1504852599771,-8.65109734583266,PRT2,http://www.stcp.pt/pt/viajar/paragens/?t=detalhe&paragem=STC2,True,bus
JBR1,JBR1,JOÃO BARROS,,41.1586718730451,-8.66420975770604,PRT2,http://www.stcp.pt/pt/viajar/paragens/?t=detalhe&paragem=JBR1,True,bus
PNV3,PNV3,PAULO NOVAIS,,41.1629696653219,-8.66004859886819,PRT2,http://www.stcp.pt/pt/viajar/paragens/?t=detalhe&paragem=PNV3,True,bus
ALFK2,ALFK2,ALFREDO KEIL,,41.1567184488225,-8.66614434908023,PRT2,http://www.stcp.pt/pt/viajar/paragens/?t=detalhe&paragem=ALFK2,True,bus
PRCD4,PRCD4,PARQUE DA CIDADE,,41.1649581040573,-8.67200336473927,PRT2,http://www.stcp.pt/pt/viajar/paragens/?t=detalhe&paragem=PRCD4,True,bus
HSA3,HSA3,HOSP. STO. ANTÓNIO,,41.1480800164018,-8.61991937646459,PRT1,http://www.stcp.pt/pt/viajar/paragens/?t=detalhe&paragem=HSA3,True,bus
PGON1,PGON1,PRAIA DE GONDARÉM,,41.1556231510132,-8.68045979195926,PRT2,http://www.stcp.pt/pt/viajar/paragens/?t=detalhe&paragem=PGON1,True,bus
ADA2,ADA2,ARCA D ÁGUA,,41.1718796759161,-8.6144769681214,PRT1,http://www.stcp.pt/pt/viajar/paragens/?t=detalhe&paragem=ADA2,True,bus
JB1,JB1,JARDIM BOTÂNICO,,41.1545278010364,-8.64422225165835,PRT1,http://www.stcp.pt/pt/viajar/paragens/?t=detalhe&paragem=JB1,True,bus
CNTT2,CNTT2,CONSTITUIÇÃO,,41.1639444200162,-8.61111113681758,PRT1,http://www.stcp.pt/pt/viajar/paragens/?t=detalhe&paragem=CNTT2,True,bus
BFAL1,BFAL1,BR. FALCÃO,,41.1586217774712,-8.57535205251054,PRT3,http://www.stcp.pt/pt/viajar/paragens/?t=detalhe&paragem=BFAL1,True,bus
C24A4,C24A4,CAMPO 24 AGOSTO,,41.1489255347099,-8.59853219091193,PRT1,http://www.stcp.pt/pt/viajar/paragens/?t=detalhe&paragem=C24A4,True,bus
LAPA1,LAPA1,LAPA,,41.1568333495198,-8.61233328158925,PRT1,http://www.stcp.pt/pt/viajar/paragens/?t=detalhe&paragem=LAPA1,True,bus
CTP,CTP,CLUBE TÉNIS PORTO,,41.1620281407091,-8.61410885460019,PRT1,http://www.stcp.pt/pt/viajar/paragens/?t=detalhe&paragem=CTP,True,bus
CZV2,CZV2,CRUZ VERMELHA,,41.1613055042215,-8.62477781146306,PRT1,http://www.stcp.pt/pt/viajar/paragens/?t=detalhe&paragem=CZV2,True,bus
BLRB1,BLRB1,BOLHÃO,,41.1518678017635,-8.60711493965863,PRT1,http://www.stcp.pt/pt/viajar/paragens/?t=detalhe&paragem=BLRB1,True,bus
HSJ1,HSJ1,HOSP. S. JOÃO (METRO),,41.1833889140214,-8.60261106039537,PRT3,http://www.stcp.pt/pt/viajar/paragens/?t=detalhe&paragem=HSJ1,True,bus
PAST1,PAST1,PASTELEIRA,,41.1557756241619,-8.65452205765523,PRT2,http://www.stcp.pt/pt/viajar/paragens/?t=detalhe&paragem=PAST1,True,bus
PLNT1,PLNT1,PLANETÁRIO,,41.1530942658215,-8.63828886750567,PRT1,http://www.stcp.pt/pt/viajar/paragens/?t=detalhe&paragem=PLNT1,True,bus
AALB,AALB,AFONSO  ALBUQUERQUE,,41.1588150642884,-8.6623307525236,PRT2,http://www.stcp.pt/pt/viajar/paragens/?t=detalhe&paragem=AALB,True,bus
BIC4,BIC4,BICALHO,,41.1483889128827,-8.63713887236816,PRT1,http://www.stcp.pt/pt/viajar/paragens/?t=detalhe&paragem=BIC4,True,bus
CRM2,CRM2,CASA DE RAMALDE,,41.1683916692558,-8.64585378501513,PRT2,http://www.stcp.pt/pt/viajar/paragens/?t=detalhe&paragem=CRM2,True,bus
BS5,BS5,BOAVISTA-B.SUCESSO,,41.156156866278,-8.62857304866752,PRT1,http://www.stcp.pt/pt/viajar/paragens/?t=detalhe&paragem=BS5,True,bus
SBNT2,SBNT2,EST.S.BENTO,,41.1457088068844,-8.61089306919196,PRT1,http://www.stcp.pt/pt/viajar/paragens/?t=detalhe&paragem=SBNT2,True,bus
PASS,PASS,PASSEIO ALEGRE,,41.1477091141312,-8.66762490994829,PRT2,http://www.stcp.pt/pt/viajar/paragens/?t=detalhe&paragem=PASS,True,bus
TVA1,TVA1,TV. ALDEIA,,41.1524079157069,-8.56343009920649,PRT3,http://www.stcp.pt/pt/viajar/paragens/?t=detalhe&paragem=TVA1,True,bus
PNG3,PNG3,PÊGO NEGRO,,41.1547434097318,-8.56010966682408,PRT3,http://www.stcp.pt/pt/viajar/paragens/?t=detalhe&paragem=PNG3,True,bus
PNG4,PNG4,PÊGO NEGRO,,41.1548979943241,-8.56004205149223,PRT3,http://www.stcp.pt/pt/viajar/paragens/?t=detalhe&paragem=PNG4,True,bus
TVA2,TVA2,TV. ALDEIA,,41.1524983132392,-8.56333538814198,PRT3,http://www.stcp.pt/pt/viajar/paragens/?t=detalhe&paragem=TVA2,True,bus
JFC,JFC,JUNTA FREG. CAMPANHÃ,,41.1581669000234,-8.57858673553547,PRT3,http://www.stcp.pt/pt/viajar/paragens/?t=detalhe&paragem=JFC,True,bus
MCAM3,MCAM3,MONTE CAMPANHÃ,,41.1568580729901,-8.57475353228406,PRT3,http://www.stcp.pt/pt/viajar/paragens/?t=detalhe&paragem=MCAM3,True,bus
TRH3,TRH3,TORRINHA,,41.1518975116665,-8.61788556844631,PRT1,http://www.stcp.pt/pt/viajar/paragens/?t=detalhe&paragem=TRH3,True,bus
MCBL2,MCBL2,MERCADO DO BOLHÃO,,41.1489444154477,-8.6086111045518,PRT1,http://www.stcp.pt/pt/viajar/paragens/?t=detalhe&paragem=MCBL2,True,bus
MON4,MON4,MONCHIQUE,,41.1447302116453,-8.62705922430037,PRT1,http://www.stcp.pt/pt/viajar/paragens/?t=detalhe&paragem=MON4,True,bus
ENCO3,ENCO3,ENCOSTA DA ARRÁBIDA,,41.1483055398399,-8.64433332041503,PRT2,http://www.stcp.pt/pt/viajar/paragens/?t=detalhe&paragem=ENCO3,True,bus
ENCO4,ENCO4,ENCOSTA DA ARRÁBIDA,,41.1482500172456,-8.64430549011245,PRT2,http://www.stcp.pt/pt/viajar/paragens/?t=detalhe&paragem=ENCO4,True,bus
MON1,MON1,MONCHIQUE,,41.1447242217408,-8.62723773345968,PRT1,http://www.stcp.pt/pt/viajar/paragens/?t=detalhe&paragem=MON1,True,bus
ENCO1,ENCO1,ENCOSTA DA ARRÁBIDA,,41.1482641123046,-8.64415288554371,PRT2,http://www.stcp.pt/pt/viajar/paragens/?t=detalhe&paragem=ENCO1,True,bus
MON2,MON2,MONCHIQUE,,41.1446998322668,-8.62645948741977,PRT1,http://www.stcp.pt/pt/viajar/paragens/?t=detalhe&paragem=MON2,True,bus
ENCO2,ENCO2,ENCOSTA DA ARRÁBIDA,,41.1483288879422,-8.64549994514243,PRT2,http://www.stcp.pt/pt/viajar/paragens/?t=detalhe&paragem=ENCO2,True,bus
OURO1,OURO1,OURO,,41.1485605059387,-8.64760986248081,PRT2,http://www.stcp.pt/pt/viajar/paragens/?t=detalhe&paragem=OURO1,True,bus
OURO2,OURO2,OURO,,41.1482332980285,-8.64805055114609,PRT2,http://www.stcp.pt/pt/viajar/paragens/?t=detalhe&paragem=OURO2,True,bus
SRV3,SRV3,SERRALVES,,41.162755572606,-8.65746351053319,PRT2,http://www.stcp.pt/pt/viajar/paragens/?t=detalhe&paragem=SRV3,True,bus
SRV4,SRV4,SERRALVES,,41.1625747192492,-8.65745432109152,PRT2,http://www.stcp.pt/pt/viajar/paragens/?t=detalhe&paragem=SRV4,True,bus
MON3,MON3,MONCHIQUE,,41.1447944311963,-8.62715952630331,PRT1,http://www.stcp.pt/pt/viajar/paragens/?t=detalhe&paragem=MON3,True,bus
CAIS1,CAIS1,CAIS DAS PEDRAS,,41.1460814984025,-8.63108247467304,PRT1,http://www.stcp.pt/pt/viajar/paragens/?t=detalhe&paragem=CAIS1,True,bus
CAIS2,CAIS2,CAIS DAS PEDRAS,,41.1460030409277,-8.63111022974134,PRT1,http://www.stcp.pt/pt/viajar/paragens/?t=detalhe&paragem=CAIS2,True,bus
PAL7,PAL7,PALÁCIO,,41.1455053774673,-8.62462613525549,PRT1,http://www.stcp.pt/pt/viajar/paragens/?t=detalhe&paragem=PAL7,True,bus
IGRM1,IGRM1,IGREJA DE MASSARELOS,,41.1463942743658,-8.63023731802278,PRT1,http://www.stcp.pt/pt/viajar/paragens/?t=detalhe&paragem=IGRM1,True,bus
SRGB1,SRGB1,S. ROQUE G. BARROS,,41.1669420971523,-8.57054860624107,PRT3,http://www.stcp.pt/pt/viajar/paragens/?t=detalhe&paragem=SRGB1,True,bus
ASZE1,ASZE1,PINTOR ARPAD SZENES,,41.1572044773958,-8.65273990186677,PRT2,http://www.stcp.pt/pt/viajar/paragens/?t=detalhe&paragem=ASZE1,True,bus
GGT3,GGT3,GÓLGOTA,,41.1519722385676,-8.63452780051602,PRT1,http://www.stcp.pt/pt/viajar/paragens/?t=detalhe&paragem=GGT3,True,bus
HMGL2,HMGL2,HOSP.MAGALHÃES LEMOS,,41.1773286697471,-8.6635423986735,PRT2,http://www.stcp.pt/pt/viajar/paragens/?t=detalhe&paragem=HMGL2,True,bus
HMGL5,HMGL5,HOSP.MAGALHÃES LEMOS,,41.1773279728121,-8.66379087189467,PRT2,http://www.stcp.pt/pt/viajar/paragens/?t=detalhe&paragem=HMGL5,True,bus
OLM,OLM,OLIVEIRA MONTEIRO,,41.1632143971759,-8.62410593381205,PRT1,http://www.stcp.pt/pt/viajar/paragens/?t=detalhe&paragem=OLM,True,bus
ADA4,ADA4,ARCA D ÁGUA,,41.1707909248141,-8.61274457446145,PRT1,http://www.stcp.pt/pt/viajar/paragens/?t=detalhe&paragem=ADA4,True,bus
CART,CART,CASA  DAS ARTES,,41.1560277298157,-8.64188885720336,PRT1,http://www.stcp.pt/pt/viajar/paragens/?t=detalhe&paragem=CART,True,bus
LDD1,LDD1,LIDADOR,,41.1697984104719,-8.6576823213827,PRT2,http://www.stcp.pt/pt/viajar/paragens/?t=detalhe&paragem=LDD1,True,bus
PLNT2,PLNT2,PLANETÁRIO,,41.15269444663,-8.63724995601711,PRT1,http://www.stcp.pt/pt/viajar/paragens/?t=detalhe&paragem=PLNT2,True,bus
FLUN1,FLUN1,FLUVIAL (NORTE),,41.152138902653,-8.65519448806506,PRT2,http://www.stcp.pt/pt/viajar/paragens/?t=detalhe&paragem=FLUN1,True,bus
FLUN2,FLUN2,FLUVIAL (NORTE),,41.1521110808706,-8.65463888812061,PRT2,http://www.stcp.pt/pt/viajar/paragens/?t=detalhe&paragem=FLUN2,True,bus
BSEE1,BSEE1,BR. STO.EUGÉNIO (ESCOLA),,41.1791162981376,-8.63750113300492,PRT2,http://www.stcp.pt/pt/viajar/paragens/?t=detalhe&paragem=BSEE1,True,bus
STJ3,STJ3,S.TA JUSTA,,41.1744757583687,-8.58664217525308,PRT3,http://www.stcp.pt/pt/viajar/paragens/?t=detalhe&paragem=STJ3,True,bus
HSJ8,HSJ8,HOSP. S. JOÃO (CIRCUNVALAÇÃO),,41.1828610798611,-8.60002776658824,PRT3,http://www.stcp.pt/pt/viajar/paragens/?t=detalhe&paragem=HSJ8,True,bus
AZ,AZ,AZENHA,,41.1815885270773,-8.61371490528472,PRT3,http://www.stcp.pt/pt/viajar/paragens/?t=detalhe&paragem=AZ,True,bus
BRRG2,BRRG2,BR.REGADO,,41.1753007138921,-8.61669303161916,PRT2,http://www.stcp.pt/pt/viajar/paragens/?t=detalhe&paragem=BRRG2,True,bus
TIM2,TIM2,TIMOR,,41.1651822001192,-8.68712017089704,PRT2,http://www.stcp.pt/pt/viajar/paragens/?t=detalhe&paragem=TIM2,True,bus
CQ10,CQ10,CASTELO DO QUEIJO,,41.1674217687502,-8.68912660556088,PRT2,http://www.stcp.pt/pt/viajar/paragens/?t=detalhe&paragem=CQ10,True,bus
PCID3,PCID3,PR. CID. SALVADOR,,41.1726827335817,-8.68818174561753,PRT2,http://www.stcp.pt/pt/viajar/paragens/?t=detalhe&paragem=PCID3,True,bus
HMLM2,HMLM2,HOMEM DO LEME,,41.1623767228365,-8.68553566228784,PRT2,http://www.stcp.pt/pt/viajar/paragens/?t=detalhe&paragem=HMLM2,True,bus
PGON2,PGON2,PRAIA DE GONDARÉM,,41.1554177647005,-8.68053527909622,PRT2,http://www.stcp.pt/pt/viajar/paragens/?t=detalhe&paragem=PGON2,True,bus
TIM1,TIM1,TIMOR,,41.1655541885364,-8.68709662042955,PRT2,http://www.stcp.pt/pt/viajar/paragens/?t=detalhe&paragem=TIM1,True,bus
CQ8,CQ8,CASTELO DO QUEIJO,,41.1678365315163,-8.6894557761123,PRT2,http://www.stcp.pt/pt/viajar/paragens/?t=detalhe&paragem=CQ8,True,bus
TRD6,TRD6,TRINDADE,,41.1510325684057,-8.61085378553862,PRT1,http://www.stcp.pt/pt/viajar/paragens/?t=detalhe&paragem=TRD6,True,bus
SRGB3,SRGB3,S.ROQUE G. BARROS,,41.1660832807125,-8.57033328661485,PRT3,http://www.stcp.pt/pt/viajar/paragens/?t=detalhe&paragem=SRGB3,True,bus
TRD4,TRD4,TRINDADE,,41.1512263981038,-8.60956040082134,PRT1,http://www.stcp.pt/pt/viajar/paragens/?t=detalhe&paragem=TRD4,True,bus
VIS5,VIS5,VISO (METRO),,41.1773611404872,-8.64649997924974,PRT2,http://www.stcp.pt/pt/viajar/paragens/?t=detalhe&paragem=VIS5,True,bus
MS2,MS2,MOUZINHO  SILVEIRA,,41.1434377730167,-8.61337077626025,PRT1,http://www.stcp.pt/pt/viajar/paragens/?t=detalhe&paragem=MS2,True,bus
PORI4,PORI4,PRAIA DO OURIGO,,41.1493055052556,-8.67458329389957,PRT2,http://www.stcp.pt/pt/viajar/paragens/?t=detalhe&paragem=PORI4,True,bus
SDB5,SDB5,SÁ DA BANDEIRA,,41.1467500239324,-8.60916662691019,PRT1,http://www.stcp.pt/pt/viajar/paragens/?t=detalhe&paragem=SDB5,True,bus
DPV4,DPV4,D.PEDRO V,,41.1509438979551,-8.62950018175948,PRT1,http://www.stcp.pt/pt/viajar/paragens/?t=detalhe&paragem=DPV4,True,bus
OURO4,OURO4,OURO,,41.1484999445138,-8.64772219681708,PRT2,http://www.stcp.pt/pt/viajar/paragens/?t=detalhe&paragem=OURO4,True,bus
ESS1,ESS1,ESCOLA SUPERIOR SAÚDE,,41.1780290939757,-8.60591759799877,PRT3,http://www.stcp.pt/pt/viajar/paragens/?t=detalhe&paragem=ESS1,True,bus
IGRM2,IGRM2,IGREJA DE MASSARELOS,,41.146449828873,-8.63057067529257,PRT1,http://www.stcp.pt/pt/viajar/paragens/?t=detalhe&paragem=IGRM2,True,bus
OURO3,OURO3,OURO,,41.1485277935595,-8.64755552460623,PRT2,http://www.stcp.pt/pt/viajar/paragens/?t=detalhe&paragem=OURO3,True,bus
PAL6,PAL6,PALÁCIO,,41.1456443017332,-8.62437619515052,PRT1,http://www.stcp.pt/pt/viajar/paragens/?t=detalhe&paragem=PAL6,True,bus
AANT1,AANT1,ALAMEDA DAS ANTAS,,41.1627120138617,-8.58601669995918,PRT1,http://www.stcp.pt/pt/viajar/paragens/?t=detalhe&paragem=AANT1,True,bus
1DAM,1DAM,D. AMÉLIA,,41.1583430609872,-8.59885310041381,PRT1,http://www.stcp.pt/pt/viajar/paragens/?t=detalhe&paragem=1DAM,True,bus
IANT4,IANT4,IGREJA DAS ANTAS,,41.1641155632666,-8.58857621503063,PRT1,http://www.stcp.pt/pt/viajar/paragens/?t=detalhe&paragem=IANT4,True,bus
AANT2,AANT2,ALAMEDA DAS ANTAS,,41.1631943937472,-8.58580556145573,PRT1,http://www.stcp.pt/pt/viajar/paragens/?t=detalhe&paragem=AANT2,True,bus
CTS3,CTS3,CASTELOS,,41.1684221390868,-8.63062640898703,PRT1,http://www.stcp.pt/pt/viajar/paragens/?t=detalhe&paragem=CTS3,True,bus
VRZL1,VRZL1,VARZIELA,,41.1808371165069,-8.57701820451694,PRT3,http://www.stcp.pt/pt/viajar/paragens/?t=detalhe&paragem=VRZL1,True,bus
STJ2,STJ2,S.TA JUSTA,,41.1752183392549,-8.58616264255584,PRT3,http://www.stcp.pt/pt/viajar/paragens/?t=detalhe&paragem=STJ2,True,bus
BS9,BS9,BOAVISTA (BOM SUCESSO),,41.1556998479921,-8.6283762423157,PRT1,http://www.stcp.pt/pt/viajar/paragens/?t=detalhe&paragem=BS9,True,bus
CNT4,CNT4,CANTAREIRA,,41.148083340705,-8.66533331777473,PRT2,http://www.stcp.pt/pt/viajar/paragens/?t=detalhe&paragem=CNT4,True,bus
FOCO1,FOCO1,FOCO,,41.1611164244501,-8.64798754935168,PRT1,http://www.stcp.pt/pt/viajar/paragens/?t=detalhe&paragem=FOCO1,True,bus
CQ5,CQ5,SEA LIFE CASTELO DO QUEIJO,,41.1682356230068,-8.68784873927489,PRT2,http://www.stcp.pt/pt/viajar/paragens/?t=detalhe&paragem=CQ5,True,bus
CQ3,CQ3,CASTELO DO QUEIJO,,41.1675322760582,-8.68720089716646,PRT2,http://www.stcp.pt/pt/viajar/paragens/?t=detalhe&paragem=CQ3,True,bus
MAL2,MAL2,MALACA,,41.1673010782602,-8.68436695793665,PRT2,http://www.stcp.pt/pt/viajar/paragens/?t=detalhe&paragem=MAL2,True,bus
MAL3,MAL3,MALACA,,41.1670757855574,-8.68448100430219,PRT2,http://www.stcp.pt/pt/viajar/paragens/?t=detalhe&paragem=MAL3,True,bus
MLH3,MLH3,MOLHE,,41.1601577361944,-8.68318499637682,PRT2,http://www.stcp.pt/pt/viajar/paragens/?t=detalhe&paragem=MLH3,True,bus
CRTO4,CRTO4,CRASTO,,41.1566907343499,-8.68037588433424,PRT2,http://www.stcp.pt/pt/viajar/paragens/?t=detalhe&paragem=CRTO4,True,bus
CRTO3,CRTO3,CRASTO,,41.157712829525,-8.6797655966753,PRT2,http://www.stcp.pt/pt/viajar/paragens/?t=detalhe&paragem=CRTO3,True,bus
CRTO2,CRTO2,CRASTO,,41.1572979818452,-8.68211273867679,PRT2,http://www.stcp.pt/pt/viajar/paragens/?t=detalhe&paragem=CRTO2,True,bus
MLH1,MLH1,MOLHE,,41.1597030613651,-8.68379727257465,PRT2,http://www.stcp.pt/pt/viajar/paragens/?t=detalhe&paragem=MLH1,True,bus
PRL1,PRL1,PR.LIBERDADE,,41.1464166812463,-8.6116389000596,PRT1,http://www.stcp.pt/pt/viajar/paragens/?t=detalhe&paragem=PRL1,True,bus
JN4,JN4,JORNAL DE NOTÍCIAS,,41.1533883497282,-8.60770465951381,PRT1,http://www.stcp.pt/pt/viajar/paragens/?t=detalhe&paragem=JN4,True,bus
RBRI1,RBRI1,RIBEIRA (INFANTE),,41.1407831758468,-8.61698714802706,PRT1,http://www.stcp.pt/pt/viajar/paragens/?t=detalhe&paragem=RBRI1,True,bus
RBR1,RBR1,RIBEIRA,,41.1412135444906,-8.61390670015759,PRT1,http://www.stcp.pt/pt/viajar/paragens/?t=detalhe&paragem=RBR1,True,bus
AAL4,AAL4,AV.ALIADOS,,41.1485277270248,-8.61066664214757,PRT1,http://www.stcp.pt/pt/viajar/paragens/?t=detalhe&paragem=AAL4,True,bus
AAL5,AAL5,AV.ALIADOS,,41.1482143139209,-8.61068211157332,PRT1,http://www.stcp.pt/pt/viajar/paragens/?t=detalhe&paragem=AAL5,True,bus
PRR1,PRR1,PR. DA REPÚBLICA,,41.1540225132401,-8.61191688287772,PRT1,http://www.stcp.pt/pt/viajar/paragens/?t=detalhe&paragem=PRR1,True,bus
TRD1,TRD1,TRINDADE,,41.1517894781636,-8.60957175446261,PRT1,http://www.stcp.pt/pt/viajar/paragens/?t=detalhe&paragem=TRD1,True,bus
PRDJ2,PRDJ2,PR.D.JOÃO I,,41.1480223949468,-8.60814973963239,PRT1,http://www.stcp.pt/pt/viajar/paragens/?t=detalhe&paragem=PRDJ2,True,bus
PDR,PDR,LARGO DO PADRÃO,,41.1473126254975,-8.60292832661232,PRT1,http://www.stcp.pt/pt/viajar/paragens/?t=detalhe&paragem=PDR,True,bus
JN3,JN3,JORNAL DE NOTÍCIAS,,41.1535767602129,-8.60651601596008,PRT1,http://www.stcp.pt/pt/viajar/paragens/?t=detalhe&paragem=JN3,True,bus
TRD2,TRD2,TRINDADE,,41.1516948699702,-8.60958703096252,PRT1,http://www.stcp.pt/pt/viajar/paragens/?t=detalhe&paragem=TRD2,True,bus
HSM1,HSM1,HOSP. S.TA MARIA,,41.1593540691223,-8.60815395475939,PRT1,http://www.stcp.pt/pt/viajar/paragens/?t=detalhe&paragem=HSM1,True,bus
GCRT1,GCRT1,GONÇALO CRISTÓVÃO,,41.1541944452086,-8.6096111316042,PRT1,http://www.stcp.pt/pt/viajar/paragens/?t=detalhe&paragem=GCRT1,True,bus
HSM,HSM,HOSP. S.TA MARIA,,41.1601296674161,-8.61003012181917,PRT1,http://www.stcp.pt/pt/viajar/paragens/?t=detalhe&paragem=HSM,True,bus
FG2,FG2,FARIA GUIMARÃES,,41.1612083684573,-8.60857664243589,PRT1,http://www.stcp.pt/pt/viajar/paragens/?t=detalhe&paragem=FG2,True,bus
BLRB3,BLRB3,BOLHÃO,,41.1514157917848,-8.60731026169494,PRT1,http://www.stcp.pt/pt/viajar/paragens/?t=detalhe&paragem=BLRB3,True,bus
SCAT1,SCAT1,S.TA CATARINA,,41.1481968105569,-8.60596606798969,PRT1,http://www.stcp.pt/pt/viajar/paragens/?t=detalhe&paragem=SCAT1,True,bus
DCAS2,DCAS2,DOZE CASAS,,41.1581980758679,-8.60461904343494,PRT1,http://www.stcp.pt/pt/viajar/paragens/?t=detalhe&paragem=DCAS2,True,bus
MOR1,MOR1,MOREIRA,,41.1537777673496,-8.60341669811921,PRT1,http://www.stcp.pt/pt/viajar/paragens/?t=detalhe&paragem=MOR1,True,bus
AAL9,AAL9,AV.ALIADOS,,41.147499826602,-8.61143928634113,PRT1,http://www.stcp.pt/pt/viajar/paragens/?t=detalhe&paragem=AAL9,True,bus
DT2,DT2,DUQUE TERCEIRA,,41.1458375055444,-8.59871279941235,PRT1,http://www.stcp.pt/pt/viajar/paragens/?t=detalhe&paragem=DT2,True,bus
SCAT2,SCAT2,MARCOLINO SANTA CATARINA,,41.1467476732357,-8.60681591035075,PRT1,http://www.stcp.pt/pt/viajar/paragens/?t=detalhe&paragem=SCAT2,True,bus
PRFL,PRFL,PR.FILIPA DE LENCASTRE,,41.1483046015824,-8.61276347355207,PRT1,http://www.stcp.pt/pt/viajar/paragens/?t=detalhe&paragem=PRFL,True,bus
CLRG,CLRG,CLÉRIGOS,,41.145583351365,-8.61488889380098,PRT1,http://www.stcp.pt/pt/viajar/paragens/?t=detalhe&paragem=CLRG,True,bus
BGND,BGND,BATALHA-GUINDAIS,,41.1432499907277,-8.60813891607633,PRT1,http://www.stcp.pt/pt/viajar/paragens/?t=detalhe&paragem=BGND,True,bus
BTLH4,BTLH4,BATALHA,,41.1453611307447,-8.60733335577925,PRT1,http://www.stcp.pt/pt/viajar/paragens/?t=detalhe&paragem=BTLH4,True,bus
BTLH7,BTLH7,BATALHA,,41.1451944043684,-8.60719445298153,PRT1,http://www.stcp.pt/pt/viajar/paragens/?t=detalhe&paragem=BTLH7,True,bus
PING3,PING3,PRAIA DOS INGLESES,,41.152727358204,-8.67857091251848,PRT2,http://www.stcp.pt/pt/viajar/paragens/?t=detalhe&paragem=PING3,True,bus
PORI2,PORI2,PRAIA DO OURIGO,,41.1493762640476,-8.67594177009905,PRT2,http://www.stcp.pt/pt/viajar/paragens/?t=detalhe&paragem=PORI2,True,bus
RSR1,RSR1,R. DO SENHOR,,41.1823572768879,-8.64644743367932,PRT2,http://www.stcp.pt/pt/viajar/paragens/?t=detalhe&paragem=RSR1,True,bus
EFRD1,EFRD1,ENG. FERREIRA DIAS,,41.1708769290584,-8.64458076581845,PRT2,http://www.stcp.pt/pt/viajar/paragens/?t=detalhe&paragem=EFRD1,True,bus
MRS2,MRS2,MOREIRA SÁ,,41.1623459354168,-8.63287857791813,PRT1,http://www.stcp.pt/pt/viajar/paragens/?t=detalhe&paragem=MRS2,True,bus
MTB1,MTB1,MTE BURGOS (CIRC.),,41.1794186140715,-8.62873836480282,PRT2,http://www.stcp.pt/pt/viajar/paragens/?t=detalhe&paragem=MTB1,True,bus
STLZ1,STLZ1,STA. LUZIA,,41.1773683747384,-8.62475089953243,PRT2,http://www.stcp.pt/pt/viajar/paragens/?t=detalhe&paragem=STLZ1,True,bus
CNG1,CNG1,CONGOSTAS,,41.1797475482742,-8.63386554662375,PRT2,http://www.stcp.pt/pt/viajar/paragens/?t=detalhe&paragem=CNG1,True,bus
CSR2,CSR2,C. SAÚDE RAMALDE,,41.1694591956114,-8.65364829845305,PRT2,http://www.stcp.pt/pt/viajar/paragens/?t=detalhe&paragem=CSR2,True,bus
ANTG2,ANTG2,ANTUNES GUIMARÃES,,41.1704028827062,-8.65582083889883,PRT2,http://www.stcp.pt/pt/viajar/paragens/?t=detalhe&paragem=ANTG2,True,bus
URBP1,URBP1,URB. PRELADA,,41.1708889168596,-8.63722219271322,PRT2,http://www.stcp.pt/pt/viajar/paragens/?t=detalhe&paragem=URBP1,True,bus
SDP2,SDP2,SIDÓNIO PAIS,,41.1644542469111,-8.63709197525484,PRT1,http://www.stcp.pt/pt/viajar/paragens/?t=detalhe&paragem=SDP2,True,bus
LRD2,LRD2,LORDELO,,41.1541388652798,-8.6477221970907,PRT2,http://www.stcp.pt/pt/viajar/paragens/?t=detalhe&paragem=LRD2,True,bus
BSS2,BSS2,BESSA,,41.1605330922443,-8.64493193069031,PRT1,http://www.stcp.pt/pt/viajar/paragens/?t=detalhe&paragem=BSS2,True,bus
ACRD1,ACRD1,ANTÓNIO CARDOSO,,41.1598429859494,-8.63991837818518,PRT1,http://www.stcp.pt/pt/viajar/paragens/?t=detalhe&paragem=ACRD1,True,bus
ACRD2,ACRD2,ANTÓNIO CARDOSO,,41.1596101652421,-8.63989132226471,PRT1,http://www.stcp.pt/pt/viajar/paragens/?t=detalhe&paragem=ACRD2,True,bus
MPAZ4,MPAZ4,MAN.P.AZEVEDO 2,,41.1744093504268,-8.6486574382694,PRT2,http://www.stcp.pt/pt/viajar/paragens/?t=detalhe&paragem=MPAZ4,True,bus
EFRD2,EFRD2,ENG. FERREIRA DIAS,,41.1710563293254,-8.64453223494652,PRT2,http://www.stcp.pt/pt/viajar/paragens/?t=detalhe&paragem=EFRD2,True,bus
MPAZ3,MPAZ3,MAN.P.AZEVEDO 1,,41.173305482598,-8.64727953205626,PRT2,http://www.stcp.pt/pt/viajar/paragens/?t=detalhe&paragem=MPAZ3,True,bus
RAEP4,RAEP4,ROT. A.E.P.,,41.1770764983441,-8.65476140206202,PRT2,http://www.stcp.pt/pt/viajar/paragens/?t=detalhe&paragem=RAEP4,True,bus
SRP1,SRP1,SRA.PENHA,,41.180415164999,-8.64984078578448,PRT2,http://www.stcp.pt/pt/viajar/paragens/?t=detalhe&paragem=SRP1,True,bus
SRPT1,SRPT1,S.RA DO PORTO,,41.1778696395075,-8.62877492608645,PRT2,http://www.stcp.pt/pt/viajar/paragens/?t=detalhe&paragem=SRPT1,True,bus
FZIN1,FZIN1,FRANCOS Z. INDUSTR,,41.1694220576179,-8.64465426699032,PRT2,http://www.stcp.pt/pt/viajar/paragens/?t=detalhe&paragem=FZIN1,True,bus
RUL1,RUL1,RUELA,,41.1793080453002,-8.65175083203192,PRT2,http://www.stcp.pt/pt/viajar/paragens/?t=detalhe&paragem=RUL1,True,bus
CTV2,CTV2,COTOVIAS,,41.1808729267465,-8.63622891739182,PRT2,http://www.stcp.pt/pt/viajar/paragens/?t=detalhe&paragem=CTV2,True,bus
MPAZ2,MPAZ2,MAN.P.AZEVEDO 2,,41.17413434659,-8.64854027934204,PRT2,http://www.stcp.pt/pt/viajar/paragens/?t=detalhe&paragem=MPAZ2,True,bus
ANTG1,ANTG1,ANTUNES GUIMARÃES,,41.1705276036871,-8.65569933370543,PRT2,http://www.stcp.pt/pt/viajar/paragens/?t=detalhe&paragem=ANTG1,True,bus
BRV1,BRV1,BAIRRO VILARINHA,,41.1670648844665,-8.65998961103754,PRT2,http://www.stcp.pt/pt/viajar/paragens/?t=detalhe&paragem=BRV1,True,bus
BSS1,BSS1,BESSA,,41.160616404159,-8.64498750586346,PRT1,http://www.stcp.pt/pt/viajar/paragens/?t=detalhe&paragem=BSS1,True,bus
BRRM1,BRRM1,BR. RAMALDE,,41.1704150245123,-8.64850772458142,PRT2,http://www.stcp.pt/pt/viajar/paragens/?t=detalhe&paragem=BRRM1,True,bus
BRSE1,BRSE1,BR. STO. EUGÉNIO,,41.1812393810965,-8.63658236101286,PRT2,http://www.stcp.pt/pt/viajar/paragens/?t=detalhe&paragem=BRSE1,True,bus
AV1,AV1,ALTO DO VISO,,41.1839477667931,-8.6431345778562,PRT2,http://www.stcp.pt/pt/viajar/paragens/?t=detalhe&paragem=AV1,True,bus
CTS,CTS,CASTELOS,,41.1680468971614,-8.62953112521517,PRT1,http://www.stcp.pt/pt/viajar/paragens/?t=detalhe&paragem=CTS,True,bus
CTV1,CTV1,COTOVIAS,,41.1806389120409,-8.63663889115891,PRT2,http://www.stcp.pt/pt/viajar/paragens/?t=detalhe&paragem=CTV1,True,bus
URBP2,URBP2,URB. PRELADA,,41.1708610980029,-8.63761104569836,PRT2,http://www.stcp.pt/pt/viajar/paragens/?t=detalhe&paragem=URBP2,True,bus
PREL4,PREL4,PRELADA,,41.1691849267051,-8.63659197190601,PRT1,http://www.stcp.pt/pt/viajar/paragens/?t=detalhe&paragem=PREL4,True,bus
BRCP2,BRCP2,BR. CAMPINAS,,41.1689729880267,-8.6510529628459,PRT2,http://www.stcp.pt/pt/viajar/paragens/?t=detalhe&paragem=BRCP2,True,bus
LARZ,LARZ,LAROZE ROCHA,,41.1762271120036,-8.62413480333973,PRT2,http://www.stcp.pt/pt/viajar/paragens/?t=detalhe&paragem=LARZ,True,bus
STLZ2,STLZ2,S.TA LUZIA,,41.1773755232436,-8.62495307339786,PRT2,http://www.stcp.pt/pt/viajar/paragens/?t=detalhe&paragem=STLZ2,True,bus
BLFZ1,BLFZ1,BOLHÃO (FIRMEZA),,41.1514366274902,-8.60634059317883,PRT1,http://www.stcp.pt/pt/viajar/paragens/?t=detalhe&paragem=BLFZ1,True,bus
RFZ1,RFZ1,RUA FIRMEZA,,41.1506986832988,-8.60213499494016,PRT1,http://www.stcp.pt/pt/viajar/paragens/?t=detalhe&paragem=RFZ1,True,bus
GCRT,GCRT,GONÇALO CRISTÓVÃO,,41.152412563994,-8.60578069147104,PRT1,http://www.stcp.pt/pt/viajar/paragens/?t=detalhe&paragem=GCRT,True,bus
TLHO1,TLHO1,TELHEIRO,,41.1848604047927,-8.61313007254222,MAI1,http://www.stcp.pt/pt/viajar/paragens/?t=detalhe&paragem=TLHO1,True,bus
AGM2,AGM2,AGRAMONTE,,41.1586890734198,-8.63444150104811,PRT1,http://www.stcp.pt/pt/viajar/paragens/?t=detalhe&paragem=AGM2,True,bus
PREL5,PREL5,PRELADA,,41.169000399741,-8.63661939254493,PRT1,http://www.stcp.pt/pt/viajar/paragens/?t=detalhe&paragem=PREL5,True,bus
FTM5,FTM5,FONTE DA MOURA,,41.1636281288155,-8.66371190004108,PRT2,http://www.stcp.pt/pt/viajar/paragens/?t=detalhe&paragem=FTM5,True,bus
RAEP1,RAEP1,ROT. A.E.P.,,41.1768942490086,-8.65370991291958,PRT2,http://www.stcp.pt/pt/viajar/paragens/?t=detalhe&paragem=RAEP1,True,bus
HSJ4,HSJ4,HOSP. S. JOÃO (METRO),,41.1831982027339,-8.60186180704992,PRT3,http://www.stcp.pt/pt/viajar/paragens/?t=detalhe&paragem=HSJ4,True,bus
LPC,LPC,LARGO PINTO CORREIA,,41.1507222332324,-8.64519447912549,PRT2,http://www.stcp.pt/pt/viajar/paragens/?t=detalhe&paragem=LPC,True,bus
PSOC1,PSOC1,PERPÉTUO SOCORRO,,41.1631262902367,-8.60233069325639,PRT1,http://www.stcp.pt/pt/viajar/paragens/?t=detalhe&paragem=PSOC1,True,bus
DPV3,DPV3,D.PEDRO V,,41.1510277876119,-8.62927781036694,PRT1,http://www.stcp.pt/pt/viajar/paragens/?t=detalhe&paragem=DPV3,True,bus
CALE,CALE,R.CAMPO ALEGRE,,41.1531388331841,-8.62861114589576,PRT1,http://www.stcp.pt/pt/viajar/paragens/?t=detalhe&paragem=CALE,True,bus
TRD5,TRD5,TRINDADE,,41.1522221863897,-8.61016660973729,PRT1,http://www.stcp.pt/pt/viajar/paragens/?t=detalhe&paragem=TRD5,True,bus
STLZ5,STLZ5,STA. LUZIA,,41.1776721975149,-8.62337646457094,PRT2,http://www.stcp.pt/pt/viajar/paragens/?t=detalhe&paragem=STLZ5,True,bus
FEP1,FEP1,FACULDADE DE ECONOMIA,,41.1754999619678,-8.60022216202211,PRT3,http://www.stcp.pt/pt/viajar/paragens/?t=detalhe&paragem=FEP1,True,bus
FEP2,FEP2,FACULDADE DE ECONOMIA,,41.176222171332,-8.60002781069632,PRT3,http://www.stcp.pt/pt/viajar/paragens/?t=detalhe&paragem=FEP2,True,bus
CMS6,CMS6,CASA DA MÚSICA (METRO),,41.1615399483737,-8.62982969009506,PRT1,http://www.stcp.pt/pt/viajar/paragens/?t=detalhe&paragem=CMS6,True,bus
CTS1,CTS1,CASTELOS,,41.1686110865584,-8.63022222515056,PRT1,http://www.stcp.pt/pt/viajar/paragens/?t=detalhe&paragem=CTS1,True,bus
CTS2,CTS2,CASTELOS,,41.1685277676668,-8.63008336985658,PRT1,http://www.stcp.pt/pt/viajar/paragens/?t=detalhe&paragem=CTS2,True,bus
URBP3,URBP3,URB. PRELADA II,,41.1724869974107,-8.63571963636554,PRT2,http://www.stcp.pt/pt/viajar/paragens/?t=detalhe&paragem=URBP3,True,bus
PREL1,PREL1,PRELADA,,41.1734999478822,-8.63747224950558,PRT2,http://www.stcp.pt/pt/viajar/paragens/?t=detalhe&paragem=PREL1,True,bus
SBNT3,SBNT3,EST. S.BENTO,,41.1447777336355,-8.61133333540896,PRT1,http://www.stcp.pt/pt/viajar/paragens/?t=detalhe&paragem=SBNT3,True,bus
PASS1,PASS1,PASSEIO ALEGRE,,41.1488767083347,-8.67263317022375,PRT2,http://www.stcp.pt/pt/viajar/paragens/?t=detalhe&paragem=PASS1,True,bus
DTR,DTR,DIU/TEATRO,,41.1533521202853,-8.67652704855902,PRT2,http://www.stcp.pt/pt/viajar/paragens/?t=detalhe&paragem=DTR,True,bus
